"Interval"|"ms"|0|0|1,"Utc"|"ms"|0|0|1,"Battery"|"Volts"|0.0|50.0|1,"AccelX"|"G"|-2.0|2.0|25,"AccelY"|"G"|-2.0|2.0|25,"AccelZ"|"G"|-2.0|2.0|25,"Yaw"|"Deg/Sec"|-300.0|300.0|25,"Pitch"|"Deg/Sec"|-300.0|300.0|25,"Roll"|"Deg/Sec"|-300.0|300.0|25,"TPS"|"%"|0|100|10,"EngineTemp"|"F"|0|255|1,"OilTemp"|"F"|0|300|1,"RPM"|""|0|10000|10,"Steering"|""|-100|100|10,"Latitude"|"Degrees"|0.0|0.0|10,"Longitude"|"Degrees"|0.0|0.0|10,"Speed"|"MPH"|0.0|150.0|10,"Distance"|"Miles"|0.0|0.0|10,"Altitude"|"M"|0.0|1000.0|10,"GPSSats"|""|0|20|10,"GPSQual"|""|0|3|10,"GPSDOP"|""|0.0|10.0|10,"LapCount"|""|0|0|10,"LapTime"|"Min"|0.0|0.0|10,"PredTime"|"Min"|0.0|0.0|10,"ElapsedTime"|"Min"|0.0|0.0|10,"CurrentLap"|""|0|0|10
1195962,1429743738020,,-0.58,0.33,0.73,-35.5,-51.1,-60.1,,,,,,,,,,,,,,,,,,
1196002,1429743738060,,-0.57,0.32,0.75,-36.2,-57.5,-54.0,,,,,,,,,,,,,,,,,,
1196042,1429743738008,13.95,-0.56,0.35,0.79,-36.0,-54.6,-51.5,73,198,197,5102,26,38.162849,-122.455605,96.42,0.0,12.0,11,3,1.3,0,0.0,0.0,0.0,0
1196082,1429743738048,,-0.56,0.32,0.83,-35.9,-50.0,-50.9,,,,,,,,,,,,,,,,,,
1196122,1429743738088,,-0.58,0.36,0.83,-35.6,-51.0,-48.6,,,,,,,,,,,,,,,,,,
1196142,1429743738108,,,,,,,,71,,,5128,27,38.16283,-122.455566,96.56,0.0,11.9,11,3,1.3,0,0.0,0.0,0.0,0
1196162,1429743738128,,-0.58,0.35,0.81,-35.6,-52.0,-49.2,,,,,,,,,,,,,,,,,,
1196202,1429743738168,,-0.59,0.35,0.81,-33.7,-52.4,-48.2,,,,,,,,,,,,,,,,,,
1196242,1429743738208,,-0.6,0.3,0.81,-33.5,-52.2,-48.9,67,,,5155,28,38.162807,-122.455528,96.83,0.0,11.8,11,3,1.3,0,0.0,0.0,0.0,0
1196282,1429743738248,,-0.59,0.35,0.83,-31.7,-55.9,-44.4,,,,,,,,,,,,,,,,,,
1196322,1429743738288,,-0.61,0.31,0.82,-32.6,-51.9,-49.7,,,,,,,,,,,,,,,,,,
1196342,1429743738402,,,,,,,,67,,,5165,29,38.162769,-122.455437,97.53,0.0,11.6,11,3,1.3,0,0.0,0.0,0.0,0
1196362,1429743738422,,-0.62,0.31,0.83,-31.7,-50.7,-47.6,,,,,,,,,,,,,,,,,,
1196402,1429743738462,,-0.64,0.3,0.84,-30.9,-47.7,-46.9,,,,,,,,,,,,,,,,,,
1196442,1429743738507,,-0.64,0.37,0.85,-29.6,-50.0,-47.2,69,,,5198,31,38.16275,-122.455399,97.78,0.0,11.5,11,3,1.3,0,0.0,0.0,0.0,0
1196482,1429743738547,,-0.66,0.34,0.86,-29.1,-53.3,-49.4,,,,,,,,,,,,,,,,,,
1196522,1429743738587,,-0.68,0.35,0.88,-27.9,-52.0,-45.2,,,,,,,,,,,,,,,,,,
1196542,1429743738607,,,,,,,,70,,,5208,34,38.162731,-122.455345,98.04,0.0,11.4,11,3,1.3,0,0.0,0.0,0.0,0
1196562,1429743738627,,-0.71,0.35,0.88,-27.6,-56.2,-45.4,,,,,,,,,,,,,,,,,,
1196602,1429743738667,,-0.71,0.4,0.93,-27.4,-54.5,-44.1,,,,,,,,,,,,,,,,,,
1196642,1429743738708,,-0.74,0.41,0.9,-27.1,-53.3,-45.0,80,,,5225,37,38.162712,-122.455307,98.32,0.0,11.3,11,3,1.3,0,0.0,0.0,0.0,0
1196682,1429743738748,,-0.77,0.4,0.92,-25.2,-57.1,-44.8,,,,,,,,,,,,,,,,,,
1196722,1429743738788,,-0.85,0.31,0.89,-24.6,-58.8,-43.4,,,,,,,,,,,,,,,,,,
1196742,1429743738808,,,,,,,,86,,,5247,37,38.162712,-122.455307,98.32,0.0,11.3,11,3,1.3,0,0.0,0.0,0.0,0
1196762,1429743738828,,-0.85,0.32,0.9,-23.7,-58.4,-38.3,,,,,,,,,,,,,,,,,,
1196802,1429743738868,,-0.87,0.32,0.93,-24.0,-55.9,-34.7,,,,,,,,,,,,,,,,,,
1196842,1429743738801,,-0.86,0.41,0.97,-22.5,-57.4,-31.3,87,,,5247,37,38.162693,-122.455261,98.59,0.0,11.2,12,3,1.3,0,0.0,0.0,0.0,0
1196882,1429743738841,,-0.86,0.39,0.93,-22.1,-59.0,-34.3,,,,,,,,,,,,,,,,,,
1196922,1429743738881,,-0.85,0.38,0.88,-21.5,-54.5,-35.8,,,,,,,,,,,,,,,,,,
1196942,1429743738909,,,,,,,,75,,,5269,37,38.162674,-122.455223,98.83,0.0,11.2,12,3,1.3,0,0.0,0.0,0.0,0
1196962,1429743738929,,-0.85,0.33,0.84,-22.1,-54.8,-38.8,,,,,,,,,,,,,,,,,,
1197002,1429743738969,,-0.86,0.32,0.81,-21.6,-54.8,-37.0,,,,,,,,,,,,,,,,,,
1197042,1429743739009,14.23,-0.86,0.31,0.79,-21.9,-54.8,-35.7,69,198,197,5274,36,38.162655,-122.45517,99.0,0.0,11.1,12,3,1.3,0,0.0,0.0,0.0,0
1197082,1429743739049,,-0.84,0.36,0.79,-21.6,-53.9,-32.7,,,,,,,,,,,,,,,,,,
1197122,1429743739089,,-0.85,0.38,0.79,-21.2,-54.8,-33.4,,,,,,,,,,,,,,,,,,
1197142,1429743739207,,,,,,,,67,,,5302,33,38.162621,-122.455078,99.53,0.0,10.9,12,3,1.3,0,0.0,0.0,0.0,0
1197162,1429743739227,,-0.85,0.37,0.79,-21.6,-53.0,-35.9,,,,,,,,,,,,,,,,,,
1197202,1429743739267,,-0.84,0.38,0.75,-22.3,-51.6,-37.5,,,,,,,,,,,,,,,,,,
1197242,1429743739307,,-0.83,0.33,0.75,-23.2,-58.2,-44.3,67,,,5308,32,38.162605,-122.45504,99.75,0.0,10.9,12,3,1.3,0,0.0,0.0,0.0,0
1197282,1429743739347,,-0.84,0.29,0.73,-22.6,-60.9,-47.1,,,,,,,,,,,,,,,,,,
1197322,1429743739387,,-0.82,0.27,0.71,-21.4,-58.7,-46.7,,,,,,,,,,,,,,,,,,
1197342,1429743739407,,,,,,,,67,,,5313,31,38.16259,-122.454987,100.05,0.0,10.8,12,3,1.3,0,0.0,0.0,0.0,0
1197362,1429743739427,,-0.84,0.31,0.75,-22.8,-58.4,-46.2,,,,,,,,,,,,,,,,,,
1197402,1429743739467,,-0.87,0.32,0.78,-24.4,-55.9,-41.8,,,,,,,,,,,,,,,,,,
1197442,1429743739506,,-0.85,0.32,0.85,-26.3,-56.2,-41.4,67,,,5308,31,38.162575,-122.454941,100.24,0.0,10.7,12,3,1.3,0,0.0,0.0,0.0,0
1197482,1429743739546,,-0.86,0.37,0.88,-27.4,-56.4,-42.3,,,,,,,,,,,,,,,,,,
1197522,1429743739586,,-0.86,0.3,0.88,-28.5,-53.4,-46.6,,,,,,,,,,,,,,,,,,
1197542,1429743739606,,,,,,,,67,,,5330,31,38.162575,-122.454941,100.24,0.0,10.7,12,3,1.3,0,0.0,0.0,0.0,0
1197562,1429743739626,,-0.85,0.34,0.87,-27.3,-58.4,-46.4,,,,,,,,,,,,,,,,,,
1197602,1429743739666,,-0.84,0.31,0.86,-29.0,-62.0,-47.3,,,,,,,,,,,,,,,,,,
1197642,1429743739607,,-0.86,0.28,0.82,-30.0,-55.5,-49.8,42,,,5342,28,38.16256,-122.454887,100.36,0.0,10.6,11,3,1.3,0,0.0,0.0,0.0,0
1197682,1429743739647,,-0.8,0.29,0.74,-30.0,-52.5,-50.1,,,,,,,,,,,,,,,,,,
1197722,1429743739687,,-0.75,0.3,0.77,-28.4,-49.6,-49.8,,,,,,,,,,,,,,,,,,
1197742,1429743739707,,,,,,,,0,,,5258,21,38.162548,-122.454849,100.47,0.0,10.6,11,3,1.3,0,0.0,0.0,0.0,0
1197762,1429743739727,,-0.74,0.32,0.8,-29.3,-56.4,-50.6,,,,,,,,,,,,,,,,,,
1197802,1429743739767,,-0.73,0.32,0.87,-30.9,-60.0,-49.7,,,,,,,,,,,,,,,,,,
1197842,1429743739799,,-0.73,0.31,0.88,-32.7,-64.7,-52.0,0,,,5219,14,38.162537,-122.454796,100.77,0.0,10.5,11,3,1.3,0,0.0,0.0,0.0,0
1197882,1429743739839,,-0.68,0.28,0.86,-32.9,-67.2,-53.3,,,,,,,,,,,,,,,,,,
1197922,1429743739879,,-0.64,0.19,0.87,-34.8,-73.2,-56.3,,,,,,,,,,,,,,,,,,
1197942,1429743740006,,,,,,,,0,,,5252,10,38.16251,-122.454697,101.12,0.0,10.4,11,3,1.3,0,0.0,0.0,0.0,0
1197962,1429743740026,,-0.59,0.14,0.87,-35.6,-67.8,-57.9,,,,,,,,,,,,,,,,,,
1198002,1429743740066,,-0.58,0.02,0.84,-38.1,-64.2,-64.4,,,,,,,,,,,,,,,,,,
1198042,1429743740106,14.23,-0.56,-0.08,0.82,-39.5,-67.6,-67.4,0,198,197,5181,6,38.162498,-122.454643,101.15,0.0,10.3,11,3,1.3,0,0.0,0.0,0.0,0
1198082,1429743740146,,-0.52,-0.14,0.9,-41.2,-71.4,-67.6,,,,,,,,,,,,,,,,,,
1198122,1429743740186,,-0.5,-0.22,0.94,-44.1,-68.2,-69.2,,,,,,,,,,,,,,,,,,
1198142,1429743740207,,,,,,,,0,,,5056,3,38.162487,-122.45459,100.79,0.0,10.2,11,3,1.3,0,0.0,0.0,0.0,0
1198162,1429743740227,,-0.48,-0.27,0.96,-46.9,-68.0,-69.1,,,,,,,,,,,,,,,,,,
1198202,1429743740267,,-0.44,-0.25,1.0,-48.8,-65.0,-68.8,,,,,,,,,,,,,,,,,,
1198242,1429743740307,,-0.41,-0.24,1.09,-51.0,-68.3,-68.1,0,,,4897,3,38.162476,-122.454552,99.74,0.0,10.1,11,3,1.3,0,0.0,0.0,0.0,0
1198282,1429743740347,,-0.34,-0.25,1.11,-53.7,-61.8,-65.8,,,,,,,,,,,,,,,,,,
1198322,1429743740387,,-0.32,-0.26,1.11,-54.4,-63.0,-65.2,,,,,,,,,,,,,,,,,,
1198342,1429743740407,,,,,,,,0,,,4864,4,38.162476,-122.454552,99.74,0.0,10.1,11,3,1.3,0,0.0,0.0,0.0,0
1198362,1429743740427,,-0.29,-0.33,1.1,-56.8,-62.6,-66.9,,,,,,,,,,,,,,,,,,
1198402,1429743740467,,-0.28,-0.36,1.07,-57.3,-58.6,-65.6,,,,,,,,,,,,,,,,,,
1198442,1429743740408,,-0.26,-0.4,1.07,-56.3,-57.4,-64.4,0,,,4771,5,38.162468,-122.454506,98.32,0.0,10.1,11,3,1.3,0,0.0,0.0,0.0,0
1198482,1429743740448,,-0.23,-0.44,1.07,-56.6,-57.1,-62.5,,,,,,,,,,,,,,,,,,
1198522,1429743740488,,-0.2,-0.43,1.07,-57.1,-56.2,-57.7,,,,,,,,,,,,,,,,,,
1198542,1429743740508,,,,,,,,0,,,4757,5,38.162457,-122.454452,96.66,0.0,10.0,11,3,1.3,0,0.0,0.0,0.0,0
1198562,1429743740528,,-0.19,-0.48,1.07,-56.6,-53.4,-58.8,,,,,,,,,,,,,,,,,,
1198602,1429743740568,,-0.17,-0.51,1.07,-57.0,-54.6,-57.3,,,,,,,,,,,,,,,,,,
1198642,1429743740606,,-0.17,-0.44,1.11,-57.1,-54.3,-53.7,0,,,4695,3,38.162445,-122.454399,95.19,0.0,9.9,11,3,1.3,0,0.0,0.0,0.0,0
1198682,1429743740646,,-0.15,-0.42,1.11,-56.9,-56.6,-52.3,,,,,,,,,,,,,,,,,,
1198722,1429743740686,,-0.17,-0.46,1.06,-57.7,-53.5,-50.5,,,,,,,,,,,,,,,,,,
1198742,1429743740807,,,,,,,,0,,,4591,1,38.162426,-122.454315,92.15,0.0,9.7,11,3,1.3,0,0.0,0.0,0.0,0
1198762,1429743740827,,-0.16,-0.49,1.04,-58.6,-53.5,-51.3,,,,,,,,,,,,,,,,,,
1198802,1429743740867,,-0.19,-0.46,1.03,-58.3,-57.5,-53.7,,,,,,,,,,,,,,,,,,
1198842,1429743740899,,-0.16,-0.43,1.04,-58.4,-59.1,-54.4,0,,,4500,-2,38.162418,-122.454262,90.79,0.0,9.7,11,3,1.3,0,0.0,0.0,0.0,0
1198882,1429743740939,,-0.19,-0.45,1.02,-57.7,-56.9,-56.3,,,,,,,,,,,,,,,,,,
1198922,1429743740979,,-0.16,-0.53,0.98,-59.0,-53.5,-57.7,,,,,,,,,,,,,,,,,,
1198942,1429743741007,,,,,,,,0,,,4440,-7,38.162411,-122.454224,89.36,0.0,9.6,11,3,1.3,0,0.0,0.0,0.0,0
1198962,1429743741027,,-0.18,-0.59,0.99,-59.7,-55.0,-61.0,,,,,,,,,,,,,,,,,,
1199002,1429743741067,,-0.16,-0.56,1.02,-61.0,-57.6,-61.3,,,,,,,,,,,,,,,,,,
1199042,1429743741107,14.08,-0.15,-0.53,1.05,-62.2,-56.5,-63.4,0,198,197,4374,-11,38.162399,-122.454186,88.02,0.0,9.5,11,3,1.3,0,0.0,0.0,0.0,0
1199082,1429743741147,,-0.12,-0.43,1.08,-63.2,-59.5,-64.7,,,,,,,,,,,,,,,,,,
1199122,1429743741187,,-0.09,-0.34,1.12,-63.6,-58.7,-65.4,,,,,,,,,,,,,,,,,,
1199142,1429743741207,,,,,,,,0,,,4299,-15,38.162399,-122.454186,88.02,0.0,9.5,11,3,1.3,0,0.0,0.0,0.0,0
1199162,1429743741227,,-0.08,-0.4,1.08,-64.2,-56.7,-65.1,,,,,,,,,,,,,,,,,,
1199202,1429743741267,,-0.05,-0.42,1.06,-65.7,-56.7,-64.4,,,,,,,,,,,,,,,,,,
1199242,1429743741208,,-0.0,-0.45,1.03,-66.9,-54.9,-67.1,0,,,4263,-20,38.162392,-122.454132,86.51,0.0,9.5,11,3,1.3,0,0.0,0.0,0.0,0
1199282,1429743741248,,0.0,-0.52,0.98,-67.7,-52.3,-71.0,,,,,,,,,,,,,,,,,,
1199322,1429743741288,,0.03,-0.59,0.95,-69.1,-52.6,-73.9,,,,,,,,,,,,,,,,,,
1199342,1429743741308,,,,,,,,0,,,4223,-28,38.16238,-122.454094,85.21,0.0,9.4,11,3,1.3,0,0.0,0.0,0.0,0
1199362,1429743741328,,0.07,-0.56,0.95,-72.0,-51.9,-74.9,,,,,,,,,,,,,,,,,,
1199402,1429743741368,,0.09,-0.6,0.93,-74.8,-50.1,-80.1,,,,,,,,,,,,,,,,,,
1199442,1429743741408,,0.13,-0.56,0.93,-78.9,-53.7,-80.9,0,,,4184,-33,38.162376,-122.454056,83.77,0.0,9.3,11,3,1.3,0,0.0,0.0,0.0,0
1199482,1429743741448,,0.15,-0.48,0.95,-81.9,-55.6,-82.6,,,,,,,,,,,,,,,,,,
1199522,1429743741488,,0.22,-0.44,0.96,-84.8,-55.0,-81.3,,,,,,,,,,,,,,,,,,
1199542,1429743741607,,,,,,,,0,,,4136,-37,38.162357,-122.453964,81.6,0.0,9.2,11,3,1.3,0,0.0,0.0,0.0,0
1199562,1429743741627,,0.28,-0.45,0.94,-88.4,-54.9,-82.4,,,,,,,,,,,,,,,,,,
1199602,1429743741667,,0.32,-0.41,0.96,-92.0,-58.4,-83.3,,,,,,,,,,,,,,,,,,
1199642,1429743741707,,0.37,-0.37,0.97,-95.0,-59.8,-81.0,0,,,4102,-40,38.162346,-122.453926,80.68,0.0,9.1,11,3,1.3,0,0.0,0.0,0.0,0
1199682,1429743741747,,0.41,-0.28,0.97,-96.9,-61.2,-80.3,,,,,,,,,,,,,,,,,,
1199722,1429743741787,,0.45,-0.28,0.93,-99.5,-60.7,-79.8,,,,,,,,,,,,,,,,,,
1199742,1429743741807,,,,,,,,0,,,4045,-43,38.162338,-122.453888,79.75,0.0,9.1,11,3,1.3,0,0.0,0.0,0.0,0
1199762,1429743741827,,0.46,-0.31,0.89,-102.1,-58.0,-81.0,,,,,,,,,,,,,,,,,,
1199802,1429743741867,,0.49,-0.31,0.88,-104.8,-60.1,-81.6,,,,,,,,,,,,,,,,,,
1199842,1429743741901,,0.51,-0.23,0.92,-105.5,-59.1,-80.8,0,,,4095,-47,38.162327,-122.45385,79.16,0.0,9.0,11,3,1.3,0,0.0,0.0,0.0,0
1199882,1429743741941,,0.54,-0.23,0.89,-106.4,-56.2,-81.7,,,,,,,,,,,,,,,,,,
1199922,1429743741981,,0.59,-0.29,0.85,-106.3,-56.1,-80.2,,,,,,,,,,,,,,,,,,
1199942,1429743742001,,,,,,,,0,,,4052,-51,38.162327,-122.45385,79.16,0.0,9.0,11,3,1.3,0,0.0,0.0,0.0,0
1199962,1429743742021,,0.62,-0.34,0.81,-107.0,-55.0,-79.5,,,,,,,,,,,,,,,,,,
1200002,1429743742061,,0.66,-0.36,0.79,-109.1,-56.8,-80.2,,,,,,,,,,,,,,,,,,
1200042,1429743742008,14.3,0.7,-0.32,0.79,-110.4,-60.8,-79.8,0,198,197,4039,-52,38.162315,-122.453812,78.52,0.0,9.0,11,3,1.3,0,0.0,0.0,0.0,0
1200082,1429743742048,,0.71,-0.26,0.82,-111.6,-59.4,-81.3,,,,,,,,,,,,,,,,,,
1200122,1429743742088,,0.74,-0.26,0.83,-113.3,-55.9,-82.8,,,,,,,,,,,,,,,,,,
1200142,1429743742108,,,,,,,,0,,,4032,-53,38.162308,-122.453774,78.12,0.0,8.9,11,3,1.3,0,0.0,0.0,0.0,0
1200162,1429743742128,,0.77,-0.28,0.83,-114.3,-53.9,-80.9,,,,,,,,,,,,,,,,,,
1200202,1429743742168,,0.8,-0.28,0.84,-115.2,-54.6,-80.2,,,,,,,,,,,,,,,,,,
1200242,1429743742208,,0.84,-0.29,0.85,-116.3,-54.4,-78.0,7,,,4023,-53,38.162296,-122.453735,77.91,0.0,8.9,11,3,1.3,0,0.0,0.0,0.0,0
1200282,1429743742248,,0.86,-0.21,0.87,-116.8,-59.9,-75.7,,,,,,,,,,,,,,,,,,
1200322,1429743742288,,0.83,-0.17,0.86,-118.0,-57.7,-77.0,,,,,,,,,,,,,,,,,,
1200342,1429743742407,,,,,,,,20,,,4003,-55,38.162273,-122.453659,77.22,0.0,8.8,11,3,1.3,0,0.0,0.0,0.0,0
1200362,1429743742427,,0.79,-0.22,0.83,-118.5,-56.2,-74.5,,,,,,,,,,,,,,,,,,
1200402,1429743742467,,0.77,-0.15,0.84,-116.7,-58.6,-71.8,,,,,,,,,,,,,,,,,,
1200442,1429743742507,,0.78,-0.07,0.85,-114.6,-60.3,-69.8,24,,,4032,-57,38.162258,-122.453636,76.95,0.0,8.7,11,3,1.3,0,0.0,0.0,0.0,0
1200482,1429743742547,,0.81,-0.04,0.86,-114.7,-59.3,-72.0,,,,,,,,,,,,,,,,,,
1200522,1429743742587,,0.85,-0.06,0.84,-116.8,-61.3,-74.2,,,,,,,,,,,,,,,,,,
1200542,1429743742608,,,,,,,,26,,,4000,-56,38.162247,-122.453598,76.59,0.0,8.6,11,3,1.3,0,0.0,0.0,0.0,0
1200562,1429743742628,,0.83,-0.04,0.86,-117.7,-60.5,-79.4,,,,,,,,,,,,,,,,,,
1200602,1429743742668,,0.81,0.0,0.88,-118.3,-60.7,-82.0,,,,,,,,,,,,,,,,,,
1200642,1429743742708,,0.77,-0.05,0.85,-117.8,-58.7,-78.4,23,,,4016,-55,38.162231,-122.45356,76.23,0.0,8.6,11,3,1.3,0,0.0,0.0,0.0,0
1200682,1429743742748,,0.78,-0.08,0.84,-116.2,-59.2,-70.8,,,,,,,,,,,,,,,,,,
1200722,1429743742788,,0.77,-0.12,0.81,-114.9,-61.6,-64.8,,,,,,,,,,,,,,,,,,
1200742,1429743742808,,,,,,,,11,,,3987,-55,38.162231,-122.45356,76.23,0.0,8.6,11,3,1.3,0,0.0,0.0,0.0,0
1200762,1429743742828,,0.79,-0.14,0.78,-113.3,-59.6,-58.2,,,,,,,,,,,,,,,,,,
1200802,1429743742868,,0.79,-0.1,0.77,-114.1,-55.9,-60.2,,,,,,,,,,,,,,,,,,
1200842,1429743742800,,0.75,-0.11,0.76,-114.5,-55.0,-60.6,10,,,3975,-53,38.162216,-122.453529,76.06,0.0,8.5,11,3,1.3,0,0.0,0.0,0.0,0
1200882,1429743742840,,0.75,-0.11,0.77,-113.2,-55.5,-58.8,,,,,,,,,,,,,,,,,,
1200922,1429743742880,,0.75,-0.15,0.79,-113.1,-56.5,-57.7,,,,,,,,,,,,,,,,,,
1200942,1429743742907,,,,,,,,11,,,3953,-52,38.162197,-122.453491,75.98,0.0,8.5,11,3,1.3,0,0.0,0.0,0.0,0
1200962,1429743742927,,0.77,-0.09,0.83,-111.7,-57.9,-59.0,,,,,,,,,,,,,,,,,,
1201002,1429743742967,,0.77,-0.01,0.87,-110.5,-58.3,-58.0,,,,,,,,,,,,,,,,,,
1201042,1429743743007,14.27,0.82,-0.01,0.88,-111.4,-59.5,-59.7,16,198,197,3943,-51,38.162182,-122.453468,75.74,0.0,8.4,11,3,1.3,0,0.0,0.0,0.0,0
1201082,1429743743047,,0.83,-0.05,0.86,-111.4,-54.7,-62.5,,,,,,,,,,,,,,,,,,
1201122,1429743743087,,0.79,-0.11,0.82,-111.6,-55.6,-60.6,,,,,,,,,,,,,,,,,,
1201142,1429743743206,,,,,,,,39,,,3949,-52,38.162148,-122.4534,75.3,0.0,8.4,11,3,1.3,0,0.0,0.0,0.0,0
1201162,1429743743226,,0.78,-0.18,0.79,-112.4,-53.9,-62.2,,,,,,,,,,,,,,,,,,
1201202,1429743743266,,0.78,-0.18,0.77,-112.4,-55.1,-65.8,,,,,,,,,,,,,,,,,,
1201242,1429743743306,,0.78,-0.13,0.79,-112.3,-55.6,-70.2,73,,,4039,-52,38.162128,-122.453362,75.03,0.0,8.4,11,3,1.3,0,0.0,0.0,0.0,0
1201282,1429743743346,,0.77,-0.06,0.78,-111.9,-52.4,-73.5,,,,,,,,,,,,,,,,,,
1201322,1429743743386,,0.77,-0.04,0.78,-111.3,-52.2,-73.3,,,,,,,,,,,,,,,,,,
1201342,1429743743406,,,,,,,,94,,,4003,-52,38.162109,-122.453339,74.84,0.0,8.4,11,3,1.3,0,0.0,0.0,0.0,0
1201362,1429743743426,,0.78,-0.03,0.8,-110.5,-51.9,-71.7,,,,,,,,,,,,,,,,,,
1201402,1429743743466,,0.77,-0.02,0.77,-110.2,-53.7,-70.2,,,,,,,,,,,,,,,,,,
1201442,1429743743506,,0.75,0.02,0.77,-110.7,-54.1,-67.1,92,,,4036,-51,38.16209,-122.453316,74.72,0.0,8.4,11,3,1.3,0,0.0,0.0,0.0,0
1201482,1429743743546,,0.75,0.1,0.82,-109.6,-51.9,-65.8,,,,,,,,,,,,,,,,,,
1201522,1429743743586,,0.77,0.14,0.81,-108.5,-53.5,-63.0,,,,,,,,,,,,,,,,,,
1201542,1429743743606,,,,,,,,75,,,4036,-53,38.16209,-122.453316,74.72,0.0,8.4,11,3,1.3,0,0.0,0.0,0.0,0
1201562,1429743743626,,0.67,0.16,0.79,-107.4,-53.0,-61.7,,,,,,,,,,,,,,,,,,
1201602,1429743743666,,0.68,0.13,0.77,-106.7,-54.3,-61.2,,,,,,,,,,,,,,,,,,
1201642,1429743743607,,0.68,0.17,0.78,-106.0,-56.8,-63.3,59,,,4036,-53,38.162071,-122.453278,74.95,0.0,8.4,11,3,1.3,0,0.0,0.0,0.0,0
1201682,1429743743647,,0.68,0.18,0.76,-105.6,-57.3,-66.0,,,,,,,,,,,,,,,,,,
1201722,1429743743687,,0.67,0.17,0.77,-103.5,-62.7,-66.2,,,,,,,,,,,,,,,,,,
1201742,1429743743708,,,,,,,,60,,,4062,-53,38.162048,-122.453247,75.22,0.0,8.4,11,3,1.3,0,0.0,0.0,0.0,0
1201762,1429743743728,,0.68,0.2,0.78,-103.1,-61.0,-65.2,,,,,,,,,,,,,,,,,,
1201802,1429743743768,,0.66,0.2,0.74,-102.9,-65.1,-62.8,,,,,,,,,,,,,,,,,,
1201842,1429743743801,,0.71,0.23,0.76,-103.0,-64.2,-63.4,61,,,4078,-53,38.162029,-122.453224,75.57,0.0,8.3,11,3,1.3,0,0.0,0.0,0.0,0
1201882,1429743743841,,0.77,0.26,0.76,-104.6,-68.2,-67.0,,,,,,,,,,,,,,,,,,
1201922,1429743743881,,0.77,0.23,0.77,-105.6,-66.6,-69.1,,,,,,,,,,,,,,,,,,
1201942,1429743744008,,,,,,,,60,,,4062,-53,38.161983,-122.453171,76.01,0.0,8.3,11,3,1.3,0,0.0,0.0,0.0,0
1201962,1429743744028,,0.74,0.18,0.77,-106.3,-64.4,-71.8,,,,,,,,,,,,,,,,,,
1202002,1429743744068,,0.75,0.19,0.81,-106.3,-67.9,-72.7,,,,,,,,,,,,,,,,,,
1202042,1429743744107,13.96,0.8,0.2,0.86,-107.3,-61.5,-73.7,58,198,197,4058,-53,38.161961,-122.453148,76.12,0.0,8.2,11,3,1.3,0,0.0,0.0,0.0,0
1202082,1429743744147,,0.8,0.18,0.87,-108.3,-59.8,-71.1,,,,,,,,,,,,,,,,,,
1202122,1429743744187,,0.83,0.2,0.89,-108.7,-57.3,-69.5,,,,,,,,,,,,,,,,,,
1202142,1429743744207,,,,,,,,56,,,4078,-52,38.161938,-122.453125,76.22,0.0,8.2,11,3,1.3,0,0.0,0.0,0.0,0
1202162,1429743744227,,0.86,0.18,0.89,-109.5,-55.1,-70.7,,,,,,,,,,,,,,,,,,
1202202,1429743744267,,0.81,0.12,0.86,-109.5,-56.6,-71.7,,,,,,,,,,,,,,,,,,
1202242,1429743744308,,0.78,0.09,0.84,-109.0,-56.1,-71.5,56,,,4105,-53,38.161915,-122.453094,76.39,0.0,8.1,11,3,1.3,0,0.0,0.0,0.0,0
1202282,1429743744348,,0.71,0.09,0.79,-108.0,-59.8,-70.9,,,,,,,,,,,,,,,,,,
1202322,1429743744388,,0.69,0.09,0.75,-107.4,-64.3,-68.7,,,,,,,,,,,,,,,,,,
1202342,1429743744408,,,,,,,,56,,,4149,-53,38.161915,-122.453094,76.39,0.0,8.1,11,3,1.3,0,0.0,0.0,0.0,0
1202362,1429743744428,,0.67,0.09,0.72,-107.7,-62.8,-68.5,,,,,,,,,,,,,,,,,,
1202402,1429743744468,,0.67,0.08,0.69,-108.1,-62.0,-69.9,,,,,,,,,,,,,,,,,,
1202442,1429743744409,,0.69,0.08,0.71,-108.2,-58.0,-70.5,56,,,4112,-52,38.161888,-122.453072,76.62,0.0,8.1,11,3,1.3,0,0.0,0.0,0.0,0
1202482,1429743744449,,0.69,0.08,0.72,-107.1,-60.7,-70.8,,,,,,,,,,,,,,,,,,
1202522,1429743744489,,0.7,0.09,0.73,-106.3,-60.8,-69.8,,,,,,,,,,,,,,,,,,
1202542,1429743744509,,,,,,,,59,,,4143,-52,38.161861,-122.453041,76.87,0.0,8.1,11,3,1.3,0,0.0,0.0,0.0,0
1202562,1429743744529,,0.71,0.1,0.76,-105.1,-61.7,-69.6,,,,,,,,,,,,,,,,,,
1202602,1429743744569,,0.74,0.13,0.76,-105.3,-66.0,-70.2,,,,,,,,,,,,,,,,,,
1202642,1429743744607,,0.72,0.14,0.77,-103.3,-68.3,-68.2,62,,,4146,-51,38.161839,-122.453033,76.99,0.0,8.1,11,3,1.3,0,0.0,0.0,0.0,0
1202682,1429743744647,,0.68,0.08,0.74,-104.7,-64.6,-63.8,,,,,,,,,,,,,,,,,,
1202722,1429743744687,,0.69,0.06,0.73,-103.1,-64.1,-60.8,,,,,,,,,,,,,,,,,,
1202742,1429743744807,,,,,,,,69,,,4149,-50,38.161785,-122.45298,77.47,0.0,8.1,11,3,1.3,0,0.0,0.0,0.0,0
1202762,1429743744827,,0.72,0.07,0.74,-102.9,-63.3,-62.6,,,,,,,,,,,,,,,,,,
1202802,1429743744867,,0.73,0.08,0.75,-103.6,-59.8,-68.0,,,,,,,,,,,,,,,,,,
1202842,1429743744901,,0.71,0.03,0.74,-104.5,-59.9,-70.1,79,,,4167,-47,38.161762,-122.452965,77.63,0.0,8.1,11,3,1.3,0,0.0,0.0,0.0,0
1202882,1429743744941,,0.69,0.02,0.76,-105.0,-61.6,-67.9,,,,,,,,,,,,,,,,,,
1202922,1429743744981,,0.71,0.06,0.77,-104.6,-57.3,-66.7,,,,,,,,,,,,,,,,,,
1202942,1429743745008,,,,,,,,88,,,4174,-43,38.161732,-122.452942,77.88,0.0,8.1,11,3,1.3,0,0.0,0.0,0.0,0
1202962,1429743745028,,0.73,0.12,0.78,-104.7,-54.7,-66.1,,,,,,,,,,,,,,,,,,
1203002,1429743745068,,0.74,0.09,0.79,-103.3,-56.5,-63.2,,,,,,,,,,,,,,,,,,
1203042,1429743745108,14.23,0.77,0.1,0.78,-100.9,-51.3,-58.9,100,198,197,4184,-40,38.161705,-122.452927,78.09,0.0,8.1,11,3,1.3,0,0.0,0.0,0.0,0
1203082,1429743745148,,0.69,0.11,0.78,-100.0,-55.3,-60.2,,,,,,,,,,,,,,,,,,
1203122,1429743745188,,0.71,0.1,0.76,-98.2,-53.4,-58.0,,,,,,,,,,,,,,,,,,
1203142,1429743745208,,,,,,,,100,,,4188,-37,38.161705,-122.452927,78.09,0.0,8.1,11,3,1.3,0,0.0,0.0,0.0,0
1203162,1429743745228,,0.69,0.12,0.77,-97.1,-56.7,-58.4,,,,,,,,,,,,,,,,,,
1203202,1429743745268,,0.7,0.17,0.79,-97.5,-54.5,-58.8,,,,,,,,,,,,,,,,,,
1203242,1429743745207,,0.66,0.2,0.8,-97.0,-53.6,-58.9,100,,,4202,-33,38.161678,-122.452904,78.12,0.0,8.1,11,3,1.3,0,0.0,0.0,0.0,0
1203282,1429743745247,,0.63,0.18,0.81,-96.2,-51.2,-58.4,,,,,,,,,,,,,,,,,,
1203322,1429743745287,,0.63,0.17,0.8,-95.3,-53.7,-56.9,,,,,,,,,,,,,,,,,,
1203342,1429743745307,,,,,,,,100,,,4198,-30,38.161648,-122.452888,78.44,0.0,8.1,11,3,1.3,0,0.0,0.0,0.0,0
1203362,1429743745327,,0.63,0.21,0.83,-92.5,-56.2,-58.2,,,,,,,,,,,,,,,,,,
1203402,1429743745367,,0.6,0.2,0.81,-92.4,-54.7,-55.8,,,,,,,,,,,,,,,,,,
1203442,1429743745404,,0.56,0.17,0.78,-91.8,-53.0,-50.7,100,,,4223,-26,38.161621,-122.452866,78.66,0.0,8.1,11,3,1.3,0,0.0,0.0,0.0,0
1203482,1429743745444,,0.55,0.15,0.78,-90.3,-56.3,-50.9,,,,,,,,,,,,,,,,,,
1203522,1429743745484,,0.52,0.21,0.8,-88.7,-60.8,-51.6,,,,,,,,,,,,,,,,,,
1203542,1429743745608,,,,,,,,100,,,4223,-25,38.161564,-122.452843,79.26,0.0,8.1,11,3,1.3,0,0.0,0.0,0.0,0
1203562,1429743745628,,0.49,0.23,0.8,-87.8,-61.0,-51.5,,,,,,,,,,,,,,,,,,
1203602,1429743745668,,0.45,0.21,0.78,-86.1,-59.2,-50.3,,,,,,,,,,,,,,,,,,
1203642,1429743745706,,0.44,0.26,0.78,-84.7,-58.5,-52.8,100,,,4244,-24,38.161533,-122.452827,79.71,0.0,8.0,11,3,1.3,0,0.0,0.0,0.0,0
1203682,1429743745746,,0.43,0.28,0.79,-82.8,-59.3,-54.8,,,,,,,,,,,,,,,,,,
1203722,1429743745786,,0.4,0.29,0.76,-82.6,-59.5,-57.3,,,,,,,,,,,,,,,,,,
1203742,1429743745807,,,,,,,,100,,,4252,-23,38.161503,-122.452812,79.95,0.0,8.0,11,3,1.3,0,0.0,0.0,0.0,0
1203762,1429743745827,,0.38,0.25,0.76,-81.7,-57.5,-60.1,,,,,,,,,,,,,,,,,,
1203802,1429743745867,,0.38,0.28,0.78,-80.4,-54.8,-61.8,,,,,,,,,,,,,,,,,,
1203842,1429743745902,,0.37,0.25,0.79,-79.8,-52.9,-64.9,100,,,4270,-22,38.161472,-122.452789,80.38,0.0,8.0,11,3,1.3,0,0.0,0.0,0.0,0
1203882,1429743745942,,0.36,0.25,0.8,-80.2,-53.7,-63.1,,,,,,,,,,,,,,,,,,
1203922,1429743745982,,0.36,0.23,0.83,-79.5,-55.1,-61.0,,,,,,,,,,,,,,,,,,
1203942,1429743746002,,,,,,,,100,,,4288,-20,38.161472,-122.452789,80.38,0.0,8.0,11,3,1.3,0,0.0,0.0,0.0,0
1203962,1429743746022,,0.35,0.21,0.85,-79.1,-53.8,-59.9,,,,,,,,,,,,,,,,,,
1204002,1429743746062,,0.32,0.22,0.83,-79.5,-52.7,-59.1,,,,,,,,,,,,,,,,,,
1204042,1429743746007,14.14,0.3,0.22,0.83,-79.3,-53.3,-56.3,100,198,200,4299,-17,38.161442,-122.452774,80.54,0.0,8.0,11,3,1.3,0,0.0,0.0,0.0,0
1204082,1429743746047,,0.32,0.2,0.84,-77.6,-53.8,-52.0,,,,,,,,,,,,,,,,,,
1204122,1429743746087,,0.33,0.24,0.83,-76.6,-54.7,-53.2,,,,,,,,,,,,,,,,,,
1204142,1429743746108,,,,,,,,100,,,4325,-13,38.161411,-122.452766,80.7,0.0,7.9,11,3,1.3,0,0.0,0.0,0.0,0
1204162,1429743746128,,0.28,0.25,0.83,-76.2,-55.4,-53.6,,,,,,,,,,,,,,,,,,
1204202,1429743746168,,0.25,0.23,0.82,-75.2,-53.1,-52.4,,,,,,,,,,,,,,,,,,
1204242,1429743746207,,0.26,0.27,0.84,-72.9,-55.9,-52.0,100,,,4325,-11,38.161381,-122.452751,81.1,0.0,7.9,11,3,1.3,0,0.0,0.0,0.0,0
1204282,1429743746247,,0.25,0.3,0.83,-71.6,-55.1,-53.1,,,,,,,,,,,,,,,,,,
1204322,1429743746287,,0.2,0.24,0.79,-71.1,-53.6,-51.4,,,,,,,,,,,,,,,,,,
1204342,1429743746407,,,,,,,,100,,,4352,-10,38.161316,-122.452728,81.72,0.0,7.9,11,3,1.3,0,0.0,0.0,0.0,0
1204362,1429743746427,,0.19,0.28,0.82,-69.0,-55.2,-50.0,,,,,,,,,,,,,,,,,,
1204402,1429743746467,,0.17,0.26,0.83,-68.0,-55.1,-51.2,,,,,,,,,,,,,,,,,,
1204442,1429743746507,,0.15,0.21,0.81,-68.0,-55.3,-51.0,100,,,4371,-10,38.161285,-122.452713,82.09,0.0,7.9,11,3,1.3,0,0.0,0.0,0.0,0
1204482,1429743746547,,0.15,0.25,0.83,-66.5,-56.5,-50.9,,,,,,,,,,,,,,,,,,
1204522,1429743746587,,0.12,0.23,0.82,-65.9,-61.0,-53.0,,,,,,,,,,,,,,,,,,
1204542,1429743746608,,,,,,,,100,,,4390,-9,38.161251,-122.452698,82.43,0.0,7.8,11,3,1.3,0,0.0,0.0,0.0,0
1204562,1429743746628,,0.09,0.26,0.84,-65.1,-60.7,-53.9,,,,,,,,,,,,,,,,,,
1204602,1429743746668,,0.12,0.29,0.85,-63.7,-59.4,-53.8,,,,,,,,,,,,,,,,,,
1204642,1429743746707,,0.12,0.27,0.83,-63.3,-57.2,-55.1,100,,,4401,-7,38.161221,-122.452682,82.76,0.0,7.8,11,3,1.3,0,0.0,0.0,0.0,0
1204682,1429743746747,,0.1,0.3,0.84,-62.3,-57.5,-55.9,,,,,,,,,,,,,,,,,,
1204722,1429743746787,,0.08,0.25,0.83,-62.6,-54.1,-54.5,,,,,,,,,,,,,,,,,,
1204742,1429743746807,,,,,,,,100,,,4417,-5,38.161221,-122.452682,82.76,0.0,7.8,11,3,1.3,0,0.0,0.0,0.0,0
1204762,1429743746827,,0.06,0.24,0.83,-62.4,-55.5,-55.1,,,,,,,,,,,,,,,,,,
1204802,1429743746867,,0.04,0.27,0.84,-62.0,-55.2,-53.4,,,,,,,,,,,,,,,,,,
1204842,1429743746802,,0.04,0.24,0.83,-60.8,-53.5,-51.6,100,,,4444,-2,38.161186,-122.452675,83.03,0.0,7.8,11,3,1.3,0,0.0,0.0,0.0,0
1204882,1429743746842,,0.05,0.3,0.87,-60.5,-56.3,-51.0,,,,,,,,,,,,,,,,,,
1204922,1429743746882,,0.04,0.32,0.88,-60.8,-53.5,-51.2,,,,,,,,,,,,,,,,,,
1204942,1429743746908,,,,,,,,100,,,4452,-1,38.161156,-122.45266,83.29,0.0,7.8,11,3,1.3,0,0.0,0.0,0.0,0
1204962,1429743746928,,0.04,0.3,0.86,-60.3,-53.7,-48.8,,,,,,,,,,,,,,,,,,
1205002,1429743746968,,0.01,0.32,0.84,-60.3,-56.4,-49.0,,,,,,,,,,,,,,,,,,
1205042,1429743747009,13.98,-0.02,0.28,0.8,-59.4,-57.7,-47.8,100,198,200,4464,-2,38.161125,-122.45266,83.6,0.0,7.7,11,3,1.3,0,0.0,0.0,0.0,0
1205082,1429743747049,,-0.02,0.28,0.78,-58.7,-55.2,-46.6,,,,,,,,,,,,,,,,,,
1205122,1429743747089,,-0.04,0.27,0.78,-59.0,-57.3,-49.9,,,,,,,,,,,,,,,,,,
1205142,1429743747207,,,,,,,,100,,,4472,-4,38.16106,-122.452637,84.34,0.0,7.7,11,3,1.3,0,0.0,0.0,0.0,0
1205162,1429743747227,,-0.07,0.32,0.81,-59.8,-59.8,-49.9,,,,,,,,,,,,,,,,,,
1205202,1429743747267,,-0.05,0.32,0.81,-59.9,-57.5,-51.1,,,,,,,,,,,,,,,,,,
1205242,1429743747307,,-0.05,0.33,0.83,-60.1,-57.0,-52.9,100,,,4492,-4,38.161026,-122.452621,84.7,0.0,7.7,11,3,1.3,0,0.0,0.0,0.0,0
1205282,1429743747347,,-0.06,0.31,0.84,-60.3,-56.2,-52.6,,,,,,,,,,,,,,,,,,
1205322,1429743747387,,-0.03,0.3,0.86,-60.1,-58.5,-54.8,,,,,,,,,,,,,,,,,,
1205342,1429743747407,,,,,,,,100,,,4513,-3,38.160992,-122.452606,84.96,0.0,7.6,11,3,1.3,0,0.0,0.0,0.0,0
1205362,1429743747427,,-0.05,0.32,0.87,-59.7,-59.1,-58.4,,,,,,,,,,,,,,,,,,
1205402,1429743747467,,-0.04,0.33,0.89,-59.5,-58.4,-59.5,,,,,,,,,,,,,,,,,,
1205442,1429743747508,,-0.04,0.35,0.88,-59.4,-58.7,-62.0,100,,,4529,-1,38.160961,-122.452599,85.35,0.0,7.6,11,3,1.3,0,0.0,0.0,0.0,0
1205482,1429743747548,,-0.06,0.29,0.85,-59.4,-58.0,-58.4,,,,,,,,,,,,,,,,,,
1205522,1429743747588,,-0.04,0.26,0.82,-58.8,-57.9,-58.0,,,,,,,,,,,,,,,,,,
1205542,1429743747608,,,,,,,,100,,,4537,-1,38.160961,-122.452599,85.35,0.0,7.6,11,3,1.3,0,0.0,0.0,0.0,0
1205562,1429743747628,,-0.05,0.26,0.81,-58.6,-57.6,-59.3,,,,,,,,,,,,,,,,,,
1205602,1429743747668,,-0.03,0.28,0.81,-56.8,-56.7,-60.4,,,,,,,,,,,,,,,,,,
1205642,1429743747610,,-0.05,0.33,0.84,-56.6,-54.4,-61.6,100,,,4570,-0,38.160927,-122.452583,85.57,0.0,7.6,11,3,1.3,0,0.0,0.0,0.0,0
1205682,1429743747650,,-0.07,0.3,0.84,-56.6,-51.9,-57.0,,,,,,,,,,,,,,,,,,
1205722,1429743747690,,-0.06,0.33,0.84,-56.7,-53.8,-58.1,,,,,,,,,,,,,,,,,,
1205742,1429743747707,,,,,,,,100,,,4579,1,38.160892,-122.452568,86.04,0.0,7.6,11,3,1.3,0,0.0,0.0,0.0,0
1205762,1429743747727,,-0.08,0.31,0.84,-55.9,-55.7,-56.2,,,,,,,,,,,,,,,,,,
1205802,1429743747767,,-0.06,0.36,0.85,-54.8,-59.1,-57.2,,,,,,,,,,,,,,,,,,
1205842,1429743747801,,-0.07,0.34,0.84,-54.3,-60.6,-58.5,100,,,4596,1,38.160862,-122.45256,86.27,0.0,7.5,11,3,1.3,0,0.0,0.0,0.0,0
1205882,1429743747841,,-0.08,0.3,0.83,-54.4,-58.4,-59.5,,,,,,,,,,,,,,,,,,
1205922,1429743747881,,-0.09,0.26,0.84,-54.7,-56.3,-61.2,,,,,,,,,,,,,,,,,,
1205942,1429743748003,,,,,,,,100,,,4613,-0,38.160793,-122.45253,86.97,0.0,7.5,11,3,1.3,0,0.0,0.0,0.0,0
1205962,1429743748023,,-0.1,0.29,0.85,-53.8,-58.0,-60.9,,,,,,,,,,,,,,,,,,
1206002,1429743748063,,-0.09,0.34,0.88,-53.4,-57.7,-64.6,,,,,,,,,,,,,,,,,,
1206042,1429743748108,14.28,-0.09,0.31,0.89,-53.0,-59.8,-62.4,100,198,200,4634,-1,38.160759,-122.452522,86.98,0.0,7.4,11,3,1.3,0,0.0,0.0,0.0,0
1206082,1429743748148,,-0.08,0.31,0.88,-53.4,-58.4,-61.8,,,,,,,,,,,,,,,,,,
1206122,1429743748188,,-0.1,0.3,0.87,-53.8,-59.6,-61.9,,,,,,,,,,,,,,,,,,
1206142,1429743748209,,,,,,,,100,,,4638,-0,38.160725,-122.452507,87.33,0.0,7.4,11,3,1.3,0,0.0,0.0,0.0,0
1206162,1429743748229,,-0.07,0.33,0.87,-53.5,-56.4,-59.3,,,,,,,,,,,,,,,,,,
1206202,1429743748269,,-0.09,0.32,0.87,-55.3,-55.5,-58.6,,,,,,,,,,,,,,,,,,
1206242,1429743748308,,-0.08,0.29,0.81,-56.6,-56.4,-55.2,100,,,4673,-1,38.16069,-122.452492,87.58,0.0,7.4,11,3,1.3,0,0.0,0.0,0.0,0
1206282,1429743748348,,-0.08,0.29,0.79,-56.9,-62.5,-53.6,,,,,,,,,,,,,,,,,,
1206322,1429743748388,,-0.07,0.31,0.8,-56.8,-62.0,-52.4,,,,,,,,,,,,,,,,,,
1206342,1429743748408,,,,,,,,100,,,4690,-1,38.16069,-122.452492,87.58,0.0,7.4,11,3,1.3,0,0.0,0.0,0.0,0
1206362,1429743748428,,-0.06,0.29,0.78,-57.2,-58.6,-53.5,,,,,,,,,,,,,,,,,,
1206402,1429743748468,,-0.06,0.26,0.76,-57.7,-58.0,-53.8,,,,,,,,,,,,,,,,,,
1206442,1429743748410,,-0.06,0.29,0.79,-57.0,-56.9,-54.3,100,,,4690,0,38.160656,-122.452484,87.83,0.0,7.4,11,3,1.3,0,0.0,0.0,0.0,0
1206482,1429743748450,,-0.04,0.31,0.8,-58.0,-55.5,-54.3,,,,,,,,,,,,,,,,,,
1206522,1429743748490,,-0.06,0.34,0.83,-57.7,-57.1,-53.4,,,,,,,,,,,,,,,,,,
1206542,1429743748510,,,,,,,,100,,,4708,2,38.160622,-122.452469,88.12,0.0,7.4,11,3,1.6,0,0.0,0.0,0.0,0
1206562,1429743748530,,-0.06,0.27,0.86,-58.5,-54.9,-50.8,,,,,,,,,,,,,,,,,,
1206602,1429743748570,,-0.02,0.34,0.9,-57.1,-59.5,-51.4,,,,,,,,,,,,,,,,,,
1206642,1429743748611,,-0.05,0.34,0.91,-55.7,-62.4,-49.1,100,,,4726,2,38.160587,-122.452454,88.38,0.0,7.3,11,3,1.6,0,0.0,0.0,0.0,0
1206682,1429743748651,,-0.06,0.35,0.92,-54.9,-62.3,-48.8,,,,,,,,,,,,,,,,,,
1206722,1429743748691,,-0.08,0.33,0.89,-55.3,-59.9,-47.9,,,,,,,,,,,,,,,,,,
1206742,1429743748810,,,,,,,,100,,,4744,2,38.160519,-122.452431,89.21,0.0,7.2,11,3,1.6,0,0.0,0.0,0.0,0
1206762,1429743748830,,-0.08,0.37,0.87,-55.0,-59.8,-51.4,,,,,,,,,,,,,,,,,,
1206802,1429743748870,,-0.1,0.32,0.82,-54.9,-57.9,-48.3,,,,,,,,,,,,,,,,,,
1206842,1429743748903,,-0.09,0.29,0.8,-55.0,-54.4,-51.2,100,,,4771,2,38.160484,-122.452415,89.71,0.0,7.2,11,3,1.6,0,0.0,0.0,0.0,0
1206882,1429743748943,,-0.1,0.32,0.78,-55.0,-52.7,-47.3,,,,,,,,,,,,,,,,,,
1206922,1429743748991,,-0.11,0.32,0.78,-55.8,-55.7,-50.5,,,,,,,,,,,,,,,,,,
1206942,1429743749011,,,,,,,,100,,,4771,1,38.16045,-122.452408,89.97,0.0,7.2,11,3,1.7,0,0.0,0.0,0.0,0
1206962,1429743749031,,-0.11,0.28,0.74,-56.9,-53.4,-48.0,,,,,,,,,,,,,,,,,,
1207002,1429743749071,,-0.13,0.32,0.73,-57.4,-56.4,-47.2,,,,,,,,,,,,,,,,,,
1207042,1429743749110,14.28,-0.1,0.3,0.72,-58.0,-56.6,-45.7,100,196,200,4789,0,38.160412,-122.452393,90.47,0.0,7.2,11,3,1.7,0,0.0,0.0,0.0,0
1207082,1429743749150,,-0.08,0.25,0.7,-58.4,-55.8,-45.9,,,,,,,,,,,,,,,,,,
1207122,1429743749190,,-0.09,0.27,0.71,-57.8,-61.4,-45.8,,,,,,,,,,,,,,,,,,
1207142,1429743749210,,,,,,,,100,,,4812,0,38.160412,-122.452393,90.47,0.0,7.2,11,3,1.7,0,0.0,0.0,0.0,0
1207162,1429743749230,,-0.11,0.26,0.68,-58.9,-60.7,-49.1,,,,,,,,,,,,,,,,,,
1207202,1429743749270,,-0.1,0.22,0.64,-58.4,-62.0,-49.5,,,,,,,,,,,,,,,,,,
1207242,1429743749211,,-0.1,0.27,0.68,-56.9,-64.3,-51.4,100,,,4826,3,38.160378,-122.452377,90.71,0.0,7.1,11,3,1.7,0,0.0,0.0,0.0,0
1207282,1429743749251,,-0.07,0.28,0.72,-56.8,-58.8,-51.6,,,,,,,,,,,,,,,,,,
1207322,1429743749291,,-0.1,0.25,0.73,-56.8,-54.5,-52.7,,,,,,,,,,,,,,,,,,
1207342,1429743749311,,,,,,,,100,,,4850,4,38.160343,-122.45237,90.93,0.0,7.1,11,3,1.8,0,0.0,0.0,0.0,0
1207362,1429743749331,,-0.08,0.27,0.76,-55.9,-58.1,-52.7,,,,,,,,,,,,,,,,,,
1207402,1429743749371,,-0.1,0.29,0.79,-53.9,-57.4,-52.5,,,,,,,,,,,,,,,,,,
1207442,1429743749411,,-0.1,0.27,0.8,-54.3,-55.4,-54.5,100,,,4859,5,38.160309,-122.452354,91.49,0.0,7.0,11,3,1.8,0,0.0,0.0,0.0,0
1207482,1429743749451,,-0.1,0.25,0.82,-55.0,-54.0,-54.6,,,,,,,,,,,,,,,,,,
1207522,1429743749491,,-0.13,0.27,0.87,-55.4,-50.4,-53.0,,,,,,,,,,,,,,,,,,
1207542,1429743749610,,,,,,,,100,,,4883,4,38.160233,-122.452332,92.11,0.0,6.8,11,3,1.8,0,0.0,0.0,0.0,0
1207562,1429743749630,,-0.13,0.29,0.9,-56.8,-47.5,-51.8,,,,,,,,,,,,,,,,,,
1207602,1429743749670,,-0.12,0.3,0.97,-56.5,-42.1,-48.8,,,,,,,,,,,,,,,,,,
1207642,1429743749710,,-0.11,0.31,1.03,-56.1,-42.1,-51.1,100,,,4892,2,38.160198,-122.452316,92.38,0.0,6.7,11,3,1.8,0,0.0,0.0,0.0,0
1207682,1429743749750,,-0.11,0.31,1.1,-55.9,-40.5,-53.3,,,,,,,,,,,,,,,,,,
1207722,1429743749790,,-0.12,0.37,1.14,-56.2,-41.5,-54.8,,,,,,,,,,,,,,,,,,
1207742,1429743749809,,,,,,,,53,,,4902,2,38.160164,-122.452301,92.28,0.0,6.7,11,3,1.5,0,0.0,0.0,0.0,0
1207762,1429743749829,,-0.1,0.38,1.13,-55.0,-43.8,-55.6,,,,,,,,,,,,,,,,,,
1207802,1429743749869,,-0.1,0.37,1.1,-55.0,-42.9,-56.4,,,,,,,,,,,,,,,,,,
1207842,1429743749903,,-0.11,0.41,1.09,-56.8,-40.1,-56.0,0,,,4912,3,38.16013,-122.452286,92.69,0.0,6.6,11,3,1.5,0,0.0,0.0,0.0,0
1207882,1429743749943,,-0.14,0.38,1.06,-55.8,-44.6,-56.5,,,,,,,,,,,,,,,,,,
1207922,1429743749983,,-0.14,0.32,1.04,-56.6,-45.8,-61.1,,,,,,,,,,,,,,,,,,
1207942,1429743750003,,,,,,,,0,,,4822,4,38.16013,-122.452286,92.69,0.0,6.6,11,3,1.5,0,0.0,0.0,0.0,0
1207962,1429743750023,,-0.16,0.33,1.05,-55.5,-52.5,-59.3,,,,,,,,,,,,,,,,,,
1208002,1429743750063,,-0.19,0.22,1.01,-56.2,-52.9,-56.4,,,,,,,,,,,,,,,,,,
1208042,1429743750009,14.1,-0.16,0.11,0.97,-56.4,-55.9,-54.2,0,196,200,4864,4,38.160091,-122.452278,92.98,0.0,6.6,11,3,1.5,0,0.0,0.0,0.0,0
1208082,1429743750049,,-0.18,0.08,0.97,-55.2,-58.8,-55.2,,,,,,,,,,,,,,,,,,
1208122,1429743750089,,-0.19,-0.01,0.94,-56.8,-59.5,-55.5,,,,,,,,,,,,,,,,,,
1208142,1429743750110,,,,,,,,0,,,4845,3,38.160053,-122.452263,93.31,0.0,6.7,11,3,1.5,0,0.0,0.0,0.0,0
1208162,1429743750130,,-0.2,-0.11,0.89,-56.8,-56.4,-56.5,,,,,,,,,,,,,,,,,,
1208202,1429743750170,,-0.21,-0.12,0.91,-56.7,-57.9,-56.8,,,,,,,,,,,,,,,,,,
1208242,1429743750208,,-0.19,-0.17,0.91,-56.0,-61.8,-54.5,0,,,4717,0,38.160019,-122.452248,93.49,0.0,6.7,11,3,1.5,0,0.0,0.0,0.0,0
1208282,1429743750248,,-0.22,-0.31,0.88,-58.6,-63.0,-55.2,,,,,,,,,,,,,,,,,,
1208322,1429743750291,,-0.2,-0.33,0.89,-58.1,-62.2,-54.3,,,,,,,,,,,,,,,,,,
1208342,1429743750410,,,,,,,,0,,,4554,1,38.159946,-122.452209,92.45,0.0,6.8,11,3,2.0,0,0.0,0.0,0.0,0
1208362,1429743750430,,-0.2,-0.33,0.92,-59.2,-59.8,-52.7,,,,,,,,,,,,,,,,,,
1208402,1429743750470,,-0.17,-0.38,0.94,-58.6,-63.9,-52.5,,,,,,,,,,,,,,,,,,
1208442,1429743750509,,-0.22,-0.36,1.01,-59.0,-63.4,-52.8,4,,,4394,1,38.159912,-122.452202,91.59,0.0,6.8,11,3,1.8,0,0.0,0.0,0.0,0
1208482,1429743750549,,-0.17,-0.4,1.05,-58.7,-60.2,-49.5,,,,,,,,,,,,,,,,,,
1208522,1429743750589,,-0.16,-0.51,1.08,-60.0,-58.9,-53.2,,,,,,,,,,,,,,,,,,
1208542,1429743750610,,,,,,,,5,,,4401,2,38.159874,-122.452187,90.18,0.0,6.9,11,3,1.8,0,0.0,0.0,0.0,0
1208562,1429743750630,,-0.15,-0.56,1.11,-60.9,-58.0,-52.5,,,,,,,,,,,,,,,,,,
1208602,1429743750670,,-0.12,-0.72,1.13,-60.8,-53.8,-55.6,,,,,,,,,,,,,,,,,,
1208642,1429743750709,,-0.11,-0.73,1.17,-59.7,-52.7,-56.6,5,,,4340,3,38.159843,-122.452171,88.03,0.0,6.9,11,3,1.8,0,0.0,0.0,0.0,0
1208682,1429743750749,,-0.13,-0.66,1.22,-58.3,-52.0,-57.2,,,,,,,,,,,,,,,,,,
1208722,1429743750789,,-0.14,-0.68,1.22,-59.5,-45.7,-57.8,,,,,,,,,,,,,,,,,,
1208742,1429743750809,,,,,,,,4,,,4167,3,38.159843,-122.452171,88.03,0.0,6.9,11,3,1.8,0,0.0,0.0,0.0,0
1208762,1429743750829,,-0.16,-0.72,1.21,-59.2,-46.5,-54.6,,,,,,,,,,,,,,,,,,
1208802,1429743750869,,-0.14,-0.71,1.22,-58.7,-48.3,-51.8,,,,,,,,,,,,,,,,,,
1208842,1429743750802,,-0.16,-0.72,1.21,-58.5,-47.9,-53.5,4,,,4042,4,38.159809,-122.452164,85.94,0.0,6.9,11,3,1.7,0,0.0,0.0,0.0,0
1208882,1429743750842,,-0.18,-0.76,1.14,-58.8,-48.5,-52.3,,,,,,,,,,,,,,,,,,
1208922,1429743750882,,-0.19,-0.82,1.07,-59.5,-52.6,-52.0,,,,,,,,,,,,,,,,,,
1208942,1429743750901,,,,,,,,4,,,3820,3,38.159775,-122.452148,83.67,0.0,6.9,11,3,1.7,0,0.0,0.0,0.0,0
1208962,1429743750921,,-0.2,-0.81,1.05,-58.7,-54.0,-51.0,,,,,,,,,,,,,,,,,,
1209002,1429743750961,,-0.21,-0.8,1.02,-58.1,-56.0,-49.5,,,,,,,,,,,,,,,,,,
1209042,1429743751008,14.19,-0.19,-0.81,1.01,-58.6,-55.5,-52.8,6,196,197,3658,2,38.159744,-122.452133,81.97,0.0,7.0,11,3,1.7,0,0.0,0.0,0.0,0
1209082,1429743751048,,-0.19,-0.85,0.99,-58.4,-61.4,-53.9,,,,,,,,,,,,,,,,,,
1209122,1429743751088,,-0.22,-0.89,0.99,-59.0,-60.3,-53.6,,,,,,,,,,,,,,,,,,
1209142,1429743751208,,,,,,,,11,,,3682,1,38.159683,-122.45211,78.0,0.0,7.0,11,3,1.7,0,0.0,0.0,0.0,0
1209162,1429743751228,,-0.2,-0.88,0.97,-59.4,-59.1,-52.9,,,,,,,,,,,,,,,,,,
1209202,1429743751268,,-0.23,-0.82,1.01,-59.2,-60.7,-52.6,,,,,,,,,,,,,,,,,,
1209242,1429743751308,,-0.21,-0.85,1.02,-59.9,-56.0,-52.8,25,,,3652,-0,38.159653,-122.452095,75.85,0.0,7.1,11,3,1.7,0,0.0,0.0,0.0,0
1209282,1429743751348,,-0.21,-0.83,1.01,-60.1,-56.0,-53.8,,,,,,,,,,,,,,,,,,
1209322,1429743751388,,-0.21,-0.83,1.01,-60.2,-56.7,-55.0,,,,,,,,,,,,,,,,,,
1209342,1429743751408,,,,,,,,38,,,3720,-0,38.159622,-122.452095,73.69,0.0,7.1,11,3,1.7,0,0.0,0.0,0.0,0
1209362,1429743751428,,-0.19,-0.78,1.04,-60.2,-55.2,-56.1,,,,,,,,,,,,,,,,,,
1209402,1429743751468,,-0.21,-0.79,1.03,-59.5,-50.7,-58.3,,,,,,,,,,,,,,,,,,
1209442,1429743751508,,-0.21,-0.74,1.03,-58.8,-52.7,-56.9,40,,,4125,-0,38.159595,-122.452087,72.03,0.0,7.1,11,3,1.7,0,0.0,0.0,0.0,0
1209482,1429743751548,,-0.22,-0.72,1.06,-59.3,-53.4,-56.3,,,,,,,,,,,,,,,,,,
1209522,1429743751588,,-0.18,-0.65,1.06,-59.3,-51.4,-56.6,,,,,,,,,,,,,,,,,,
1209542,1429743751608,,,,,,,,30,,,4717,-0,38.159595,-122.452087,72.03,0.0,7.1,11,3,1.7,0,0.0,0.0,0.0,0
1209562,1429743751628,,-0.18,-0.59,1.07,-59.2,-56.0,-58.2,,,,,,,,,,,,,,,,,,
1209602,1429743751668,,-0.16,-0.5,1.11,-59.3,-52.8,-58.4,,,,,,,,,,,,,,,,,,
1209642,1429743751605,,-0.13,-0.45,1.1,-58.4,-55.2,-58.3,18,,,4970,0,38.159569,-122.452072,70.15,0.0,7.1,11,3,1.7,0,0.0,0.0,0.0,0
1209682,1429743751645,,-0.14,-0.44,1.06,-58.4,-55.8,-59.5,,,,,,,,,,,,,,,,,,
1209722,1429743751685,,-0.14,-0.4,1.04,-57.8,-59.3,-58.9,,,,,,,,,,,,,,,,,,
1209742,1429743751707,,,,,,,,16,,,4995,0,38.159542,-122.452057,68.32,0.0,7.1,11,3,1.6,0,0.0,0.0,0.0,0
1209762,1429743751727,,-0.15,-0.39,1.0,-57.5,-60.4,-58.3,,,,,,,,,,,,,,,,,,
1209802,1429743751767,,-0.15,-0.39,0.95,-57.4,-61.3,-57.1,,,,,,,,,,,,,,,,,,
1209842,1429743751799,,-0.15,-0.34,0.94,-56.5,-64.7,-56.7,13,,,4985,-1,38.159515,-122.452049,67.35,0.0,7.1,11,3,1.3,0,0.0,0.0,0.0,0
1209882,1429743751839,,-0.16,-0.33,0.94,-56.3,-64.9,-58.5,,,,,,,,,,,,,,,,,,
1209922,1429743751879,,-0.16,-0.33,0.96,-56.4,-65.5,-59.1,,,,,,,,,,,,,,,,,,
1209942,1429743752006,,,,,,,,9,,,4946,-1,38.159466,-122.452034,64.53,0.0,7.2,11,3,1.6,0,0.0,0.0,0.0,0
1209962,1429743752026,,-0.16,-0.31,0.98,-55.6,-63.7,-57.6,,,,,,,,,,,,,,,,,,
1210002,1429743752066,,-0.16,-0.29,1.02,-55.5,-61.1,-58.5,,,,,,,,,,,,,,,,,,
1210042,1429743752106,14.2,-0.17,-0.34,1.03,-56.8,-58.6,-59.1,10,196,197,4912,0,38.159439,-122.452019,63.61,0.0,7.2,11,3,1.6,0,0.0,0.0,0.0,0
1210082,1429743752146,,-0.15,-0.37,1.06,-57.2,-55.2,-57.5,,,,,,,,,,,,,,,,,,
1210122,1429743752186,,-0.17,-0.38,1.08,-56.9,-55.3,-56.6,,,,,,,,,,,,,,,,,,
1210142,1429743752206,,,,,,,,11,,,4864,0,38.159416,-122.452011,62.39,0.0,7.2,11,3,1.6,0,0.0,0.0,0.0,0
1210162,1429743752226,,-0.14,-0.36,1.09,-57.3,-56.2,-54.5,,,,,,,,,,,,,,,,,,
1210202,1429743752266,,-0.15,-0.34,1.11,-56.6,-54.3,-55.0,,,,,,,,,,,,,,,,,,
1210242,1429743752305,,-0.15,-0.4,1.09,-57.1,-56.8,-54.1,8,,,4826,-0,38.159393,-122.451996,60.96,0.0,7.2,11,3,1.6,0,0.0,0.0,0.0,0
1210282,1429743752345,,-0.15,-0.41,1.08,-57.1,-57.7,-54.4,,,,,,,,,,,,,,,,,,
1210322,1429743752385,,-0.13,-0.42,1.06,-57.7,-54.8,-54.1,,,,,,,,,,,,,,,,,,
1210342,1429743752405,,,,,,,,0,,,4776,-2,38.159393,-122.451996,60.96,0.0,7.2,11,3,1.6,0,0.0,0.0,0.0,0
1210362,1429743752425,,-0.13,-0.44,1.04,-59.0,-53.7,-54.8,,,,,,,,,,,,,,,,,,
1210402,1429743752465,,-0.16,-0.44,1.04,-59.7,-57.0,-53.9,,,,,,,,,,,,,,,,,,
1210442,1429743752408,,-0.17,-0.43,1.03,-60.0,-57.4,-53.5,0,,,4630,-2,38.159367,-122.451996,59.62,0.0,7.2,11,3,1.6,0,0.0,0.0,0.0,0
1210482,1429743752448,,-0.19,-0.46,1.0,-60.4,-56.8,-53.4,,,,,,,,,,,,,,,,,,
1210522,1429743752488,,-0.19,-0.37,1.03,-60.0,-61.6,-51.7,,,,,,,,,,,,,,,,,,
1210542,1429743752507,,,,,,,,0,,,4433,-2,38.159344,-122.451981,58.33,0.0,7.2,11,3,1.6,0,0.0,0.0,0.0,0
1210562,1429743752527,,-0.19,-0.41,1.02,-60.7,-56.1,-52.7,,,,,,,,,,,,,,,,,,
1210602,1429743752567,,-0.18,-0.35,1.02,-59.6,-62.0,-53.7,,,,,,,,,,,,,,,,,,
1210642,1429743752607,,-0.19,-0.45,0.99,-60.7,-54.1,-53.9,7,,,4244,-2,38.159321,-122.451973,56.86,0.0,7.2,11,3,1.6,0,0.0,0.0,0.0,0
1210682,1429743752647,,-0.2,-0.34,1.03,-60.3,-61.7,-55.0,,,,,,,,,,,,,,,,,,
1210722,1429743752687,,-0.16,-0.31,1.06,-61.6,-59.9,-57.0,,,,,,,,,,,,,,,,,,
1210742,1429743752807,,,,,,,,14,,,4223,-2,38.159279,-122.451958,54.39,0.0,7.2,11,3,1.6,0,0.0,0.0,0.0,0
1210762,1429743752827,,-0.13,-0.32,1.04,-62.0,-55.9,-56.6,,,,,,,,,,,,,,,,,,
1210802,1429743752867,,-0.12,-0.34,1.03,-60.7,-52.3,-56.1,,,,,,,,,,,,,,,,,,
1210842,1429743752900,,-0.14,-0.31,1.05,-59.9,-57.1,-55.8,18,,,4227,-1,38.15926,-122.451942,53.27,0.0,7.1,11,3,1.6,0,0.0,0.0,0.0,0
1210882,1429743752940,,-0.15,-0.3,1.04,-60.9,-60.2,-53.4,,,,,,,,,,,,,,,,,,
1210922,1429743752980,,-0.11,-0.32,1.03,-60.9,-55.7,-52.8,,,,,,,,,,,,,,,,,,
1210942,1429743753007,,,,,,,,12,,,4259,-0,38.159241,-122.451942,52.58,0.0,7.1,11,3,1.6,0,0.0,0.0,0.0,0
1210962,1429743753027,,-0.11,-0.37,1.02,-60.3,-53.6,-53.9,,,,,,,,,,,,,,,,,,
1211002,1429743753067,,-0.13,-0.38,1.02,-60.6,-55.1,-54.2,,,,,,,,,,,,,,,,,,
1211042,1429743753107,13.96,-0.13,-0.39,1.0,-59.5,-55.4,-55.2,5,196,197,4288,-2,38.159218,-122.451935,50.92,0.0,7.1,11,3,1.6,0,0.0,0.0,0.0,0
1211082,1429743753147,,-0.13,-0.38,0.99,-59.6,-58.1,-56.4,,,,,,,,,,,,,,,,,,
1211122,1429743753187,,-0.12,-0.38,0.99,-59.3,-57.9,-57.1,,,,,,,,,,,,,,,,,,
1211142,1429743753207,,,,,,,,4,,,4263,-3,38.159218,-122.451935,50.92,0.0,7.1,11,3,1.6,0,0.0,0.0,0.0,0
1211162,1429743753227,,-0.15,-0.39,0.99,-59.2,-57.4,-58.4,,,,,,,,,,,,,,,,,,
1211202,1429743753267,,-0.16,-0.38,1.0,-59.1,-59.4,-59.3,,,,,,,,,,,,,,,,,,
1211242,1429743753207,,-0.15,-0.39,1.01,-60.6,-59.1,-59.6,4,,,4452,-5,38.159199,-122.45192,49.68,0.0,7.1,11,3,1.6,0,0.0,0.0,0.0,0
1211282,1429743753247,,-0.17,-0.4,1.01,-60.6,-59.9,-58.4,,,,,,,,,,,,,,,,,,
1211322,1429743753287,,-0.14,-0.39,1.03,-60.5,-60.0,-58.8,,,,,,,,,,,,,,,,,,
1211342,1429743753307,,,,,,,,5,,,4651,-10,38.15918,-122.45192,48.51,0.0,7.1,11,3,1.6,0,0.0,0.0,0.0,0
1211362,1429743753327,,-0.15,-0.39,1.04,-61.3,-59.8,-58.7,,,,,,,,,,,,,,,,,,
1211402,1429743753367,,-0.13,-0.4,1.04,-62.0,-57.4,-59.1,,,,,,,,,,,,,,,,,,
1211442,1429743753409,,-0.13,-0.35,1.06,-61.9,-55.0,-59.7,5,,,4664,-15,38.159161,-122.451904,47.42,0.0,7.0,11,3,1.6,0,0.0,0.0,0.0,0
1211482,1429743753449,,-0.11,-0.31,1.07,-61.5,-53.1,-59.8,,,,,,,,,,,,,,,,,,
1211522,1429743753489,,-0.07,-0.29,1.06,-62.8,-52.7,-60.0,,,,,,,,,,,,,,,,,,
1211542,1429743753608,,,,,,,,2,,,4472,-19,38.159126,-122.451889,44.65,0.0,7.0,11,3,1.7,0,0.0,0.0,0.0,0
1211562,1429743753628,,-0.07,-0.32,1.05,-64.9,-52.1,-61.9,,,,,,,,,,,,,,,,,,
1211602,1429743753668,,-0.07,-0.33,1.06,-66.5,-53.6,-61.5,,,,,,,,,,,,,,,,,,
1211642,1429743753708,,-0.04,-0.34,1.05,-67.8,-54.9,-60.2,0,,,4303,-22,38.159111,-122.451889,43.25,0.0,6.9,11,3,1.7,0,0.0,0.0,0.0,0
1211682,1429743753748,,-0.05,-0.34,1.05,-69.5,-55.4,-62.2,,,,,,,,,,,,,,,,,,
1211722,1429743753788,,-0.03,-0.31,1.04,-70.1,-57.0,-63.0,,,,,,,,,,,,,,,,,,
1211742,1429743753808,,,,,,,,0,,,4122,-28,38.159096,-122.451881,42.31,0.0,6.9,11,3,1.7,0,0.0,0.0,0.0,0
1211762,1429743753828,,-0.01,-0.37,1.02,-72.2,-56.2,-64.3,,,,,,,,,,,,,,,,,,
1211802,1429743753868,,-0.01,-0.39,0.99,-73.6,-53.8,-65.7,,,,,,,,,,,,,,,,,,
1211842,1429743753902,,-0.01,-0.4,1.01,-74.9,-57.7,-67.7,0,,,4032,-38,38.15908,-122.451881,41.28,0.0,6.9,11,3,1.7,0,0.0,0.0,0.0,0
1211882,1429743753942,,-0.01,-0.44,1.0,-76.7,-55.6,-69.8,,,,,,,,,,,,,,,,,,
1211922,1429743753982,,0.0,-0.46,1.0,-80.2,-57.9,-71.4,,,,,,,,,,,,,,,,,,
1211942,1429743754002,,,,,,,,0,,,3937,-47,38.15908,-122.451881,41.28,0.0,6.9,11,3,1.7,0,0.0,0.0,0.0,0
1211962,1429743754022,,0.01,-0.49,0.99,-85.0,-56.3,-73.1,,,,,,,,,,,,,,,,,,
1212002,1429743754062,,0.08,-0.42,1.0,-86.6,-59.2,-73.6,,,,,,,,,,,,,,,,,,
1212042,1429743754009,14.18,0.11,-0.38,1.0,-89.3,-58.7,-76.1,0,196,197,3774,-59,38.159061,-122.451866,40.1,0.0,6.9,11,3,1.7,0,0.0,0.0,0.0,0
1212082,1429743754049,,0.12,-0.35,0.99,-93.5,-59.5,-75.6,,,,,,,,,,,,,,,,,,
1212122,1429743754089,,0.15,-0.31,1.01,-97.7,-60.7,-75.7,,,,,,,,,,,,,,,,,,
1212142,1429743754110,,,,,,,,0,,,3676,-70,38.159046,-122.451866,38.79,0.0,6.9,11,3,1.7,0,0.0,0.0,0.0,0
1212162,1429743754130,,0.19,-0.26,1.03,-101.4,-61.6,-75.3,,,,,,,,,,,,,,,,,,
1212202,1429743754170,,0.2,-0.23,1.04,-103.1,-63.8,-80.3,,,,,,,,,,,,,,,,,,
1212242,1429743754209,,0.22,-0.23,1.0,-108.8,-60.9,-80.7,0,,,3668,-80,38.159031,-122.451851,37.51,0.0,6.8,11,3,1.7,0,0.0,0.0,0.0,0
1212282,1429743754249,,0.26,-0.19,0.98,-112.2,-62.7,-81.0,,,,,,,,,,,,,,,,,,
1212322,1429743754289,,0.28,-0.17,0.97,-116.5,-60.8,-82.3,,,,,,,,,,,,,,,,,,
1212342,1429743754407,,,,,,,,0,,,3592,-91,38.159004,-122.451851,35.35,0.0,6.8,11,3,1.7,0,0.0,0.0,0.0,0
1212362,1429743754427,,0.33,-0.16,0.96,-120.5,-58.7,-82.4,,,,,,,,,,,,,,,,,,
1212402,1429743754467,,0.36,-0.14,0.95,-124.2,-59.5,-83.2,,,,,,,,,,,,,,,,,,
1212442,1429743754508,,0.39,-0.11,0.96,-127.3,-60.0,-85.4,0,,,3595,-102,38.158989,-122.451843,34.36,0.0,6.7,11,3,1.7,0,0.0,0.0,0.0,0
1212482,1429743754548,,0.42,-0.09,0.94,-130.9,-60.7,-85.5,,,,,,,,,,,,,,,,,,
1212522,1429743754588,,0.44,-0.07,0.92,-134.8,-62.0,-84.3,,,,,,,,,,,,,,,,,,
1212542,1429743754608,,,,,,,,0,,,3544,-111,38.158978,-122.451843,33.98,0.0,6.7,11,3,1.7,0,0.0,0.0,0.0,0
1212562,1429743754628,,0.47,-0.1,0.9,-139.1,-60.4,-84.3,,,,,,,,,,,,,,,,,,
1212602,1429743754668,,0.5,-0.11,0.88,-143.2,-61.6,-85.4,,,,,,,,,,,,,,,,,,
1212642,1429743754706,,0.51,-0.1,0.87,-146.3,-60.9,-86.2,0,,,3504,-119,38.158962,-122.451843,33.64,0.0,6.7,11,3,1.7,0,0.0,0.0,0.0,0
1212682,1429743754746,,0.52,-0.1,0.87,-150.0,-64.2,-86.7,,,,,,,,,,,,,,,,,,
1212722,1429743754786,,0.54,-0.09,0.87,-153.5,-67.0,-87.4,,,,,,,,,,,,,,,,,,
1212742,1429743754806,,,,,,,,0,,,3477,-126,38.158962,-122.451843,33.64,0.0,6.7,11,3,1.7,0,0.0,0.0,0.0,0
1212762,1429743754826,,0.59,-0.09,0.87,-156.2,-67.5,-87.5,,,,,,,,,,,,,,,,,,
1212802,1429743754866,,0.59,-0.09,0.85,-159.2,-67.6,-89.3,,,,,,,,,,,,,,,,,,
1212842,1429743754802,,0.6,-0.05,0.85,-161.6,-70.7,-87.8,4,,,3434,-133,38.158951,-122.451843,33.28,0.0,6.7,11,3,1.3,0,0.0,0.0,0.0,0
1212882,1429743754842,,0.63,-0.04,0.86,-164.5,-68.6,-88.5,,,,,,,,,,,,,,,,,,
1212922,1429743754882,,0.65,-0.06,0.84,-167.6,-68.0,-89.1,,,,,,,,,,,,,,,,,,
1212942,1429743754909,,,,,,,,9,,,3444,-139,38.158939,-122.451843,33.18,0.0,6.7,11,3,1.3,0,0.0,0.0,0.0,0
1212962,1429743754929,,0.68,-0.08,0.84,-170.0,-68.7,-90.5,,,,,,,,,,,,,,,,,,
1213002,1429743754969,,0.69,-0.06,0.84,-172.1,-68.6,-91.9,,,,,,,,,,,,,,,,,,
1213042,1429743755006,14.22,0.72,-0.05,0.84,-173.8,-68.4,-92.3,11,196,197,3420,-142,38.15892,-122.451843,32.67,0.0,6.6,11,3,1.3,0,0.0,0.0,0.0,0
1213082,1429743755046,,0.73,-0.07,0.84,-175.7,-65.8,-92.3,,,,,,,,,,,,,,,,,,
1213122,1429743755086,,0.74,-0.05,0.83,-177.5,-67.6,-91.2,,,,,,,,,,,,,,,,,,
1213142,1429743755207,,,,,,,,16,,,3399,-140,38.158897,-122.451843,32.12,0.0,6.6,11,3,1.6,0,0.0,0.0,0.0,0
1213162,1429743755227,,0.75,-0.02,0.83,-178.1,-68.3,-89.3,,,,,,,,,,,,,,,,,,
1213202,1429743755267,,0.76,0.0,0.85,-178.5,-69.9,-88.6,,,,,,,,,,,,,,,,,,
1213242,1429743755307,,0.78,0.01,0.84,-178.1,-71.2,-86.9,22,,,3394,-136,38.158882,-122.451843,31.92,0.0,6.5,11,3,1.6,0,0.0,0.0,0.0,0
1213282,1429743755347,,0.77,-0.01,0.83,-178.4,-70.7,-85.9,,,,,,,,,,,,,,,,,,
1213322,1429743755387,,0.78,-0.02,0.82,-179.1,-72.1,-84.8,,,,,,,,,,,,,,,,,,
1213342,1429743755407,,,,,,,,27,,,3418,-135,38.158871,-122.451843,31.85,0.0,6.5,11,3,1.6,0,0.0,0.0,0.0,0
1213362,1429743755427,,0.78,-0.03,0.8,-179.6,-71.1,-84.5,,,,,,,,,,,,,,,,,,
1213402,1429743755467,,0.78,0.02,0.81,-178.9,-70.2,-84.8,,,,,,,,,,,,,,,,,,
1213442,1429743755507,,0.77,0.05,0.81,-178.4,-68.4,-85.9,27,,,3411,-139,38.158863,-122.451851,31.55,0.0,6.5,11,3,1.6,0,0.0,0.0,0.0,0
1213482,1429743755547,,0.76,0.05,0.81,-177.8,-66.6,-86.6,,,,,,,,,,,,,,,,,,
1213522,1429743755587,,0.76,0.05,0.81,-177.6,-65.7,-86.2,,,,,,,,,,,,,,,,,,
1213542,1429743755607,,,,,,,,27,,,3401,-141,38.158863,-122.451851,31.55,0.0,6.5,11,3,1.6,0,0.0,0.0,0.0,0
1213562,1429743755627,,0.76,0.07,0.82,-177.1,-66.2,-85.7,,,,,,,,,,,,,,,,,,
1213602,1429743755667,,0.77,0.08,0.82,-176.1,-66.6,-85.5,,,,,,,,,,,,,,,,,,
1213642,1429743755608,,0.77,0.1,0.82,-176.2,-66.9,-85.0,27,,,3436,-141,38.158848,-122.451851,31.37,0.0,6.4,11,3,1.6,0,0.0,0.0,0.0,0
1213682,1429743755648,,0.77,0.12,0.83,-176.6,-67.0,-83.8,,,,,,,,,,,,,,,,,,
1213722,1429743755688,,0.77,0.14,0.83,-176.6,-65.0,-83.1,,,,,,,,,,,,,,,,,,
1213742,1429743755708,,,,,,,,27,,,3439,-141,38.158836,-122.451851,31.41,0.0,6.4,11,3,1.6,0,0.0,0.0,0.0,0
1213762,1429743755728,,0.75,0.12,0.81,-175.7,-65.2,-81.9,,,,,,,,,,,,,,,,,,
1213802,1429743755768,,0.73,0.13,0.82,-175.6,-64.8,-83.5,,,,,,,,,,,,,,,,,,
1213842,1429743755801,,0.74,0.12,0.81,-175.7,-66.1,-83.1,28,,,3448,-144,38.158821,-122.451866,31.59,0.0,6.4,11,3,1.6,0,0.0,0.0,0.0,0
1213882,1429743755841,,0.74,0.13,0.81,-176.2,-66.3,-82.1,,,,,,,,,,,,,,,,,,
1213922,1429743755881,,0.74,0.12,0.81,-176.1,-68.8,-81.7,,,,,,,,,,,,,,,,,,
1213942,1429743756007,,,,,,,,28,,,3477,-150,38.158802,-122.451881,31.81,0.0,6.3,11,3,1.6,0,0.0,0.0,0.0,0
1213962,1429743756027,,0.75,0.14,0.82,-176.2,-70.2,-83.2,,,,,,,,,,,,,,,,,,
1214002,1429743756067,,0.74,0.13,0.81,-176.5,-68.3,-84.5,,,,,,,,,,,,,,,,,,
1214042,1429743756106,14.18,0.73,0.11,0.79,-177.6,-68.2,-84.2,31,198,197,3492,-151,38.158791,-122.451889,31.99,0.0,6.3,11,3,1.6,0,0.0,0.0,0.0,0
1214082,1429743756146,,0.74,0.1,0.79,-178.2,-69.3,-85.3,,,,,,,,,,,,,,,,,,
1214122,1429743756186,,0.77,0.11,0.79,-178.7,-69.0,-85.9,,,,,,,,,,,,,,,,,,
1214142,1429743756207,,,,,,,,33,,,3546,-148,38.158783,-122.451904,32.21,0.0,6.4,11,3,1.6,0,0.0,0.0,0.0,0
1214162,1429743756227,,0.79,0.13,0.79,-179.7,-69.2,-85.8,,,,,,,,,,,,,,,,,,
1214202,1429743756267,,0.78,0.16,0.8,-179.4,-70.1,-86.2,,,,,,,,,,,,,,,,,,
1214242,1429743756307,,0.79,0.19,0.79,-178.9,-68.7,-86.3,33,,,3587,-143,38.158772,-122.451904,32.26,0.0,6.4,11,3,1.6,0,0.0,0.0,0.0,0
1214282,1429743756347,,0.78,0.19,0.78,-178.1,-68.7,-86.6,,,,,,,,,,,,,,,,,,
1214322,1429743756387,,0.79,0.19,0.78,-177.7,-68.6,-85.5,,,,,,,,,,,,,,,,,,
1214342,1429743756407,,,,,,,,33,,,3610,-138,38.158772,-122.451904,32.26,0.0,6.4,11,3,1.6,0,0.0,0.0,0.0,0
1214362,1429743756427,,0.8,0.18,0.78,-178.0,-66.5,-85.7,,,,,,,,,,,,,,,,,,
1214402,1429743756467,,0.78,0.17,0.77,-177.0,-65.0,-85.8,,,,,,,,,,,,,,,,,,
1214442,1429743756408,,0.76,0.17,0.76,-176.6,-64.2,-86.0,33,,,3650,-135,38.15876,-122.45192,32.45,0.0,6.4,11,3,1.6,0,0.0,0.0,0.0,0
1214482,1429743756448,,0.76,0.17,0.76,-175.9,-64.4,-85.1,,,,,,,,,,,,,,,,,,
1214522,1429743756488,,0.76,0.2,0.78,-174.3,-63.6,-85.3,,,,,,,,,,,,,,,,,,
1214542,1429743756508,,,,,,,,32,,,3671,-136,38.158752,-122.451935,32.86,0.0,6.3,11,3,1.6,0,0.0,0.0,0.0,0
1214562,1429743756528,,0.77,0.21,0.79,-173.2,-63.0,-85.0,,,,,,,,,,,,,,,,,,
1214602,1429743756568,,0.77,0.21,0.79,-172.5,-61.9,-84.7,,,,,,,,,,,,,,,,,,
1214642,1429743756608,,0.75,0.19,0.79,-172.1,-62.8,-85.1,30,,,3682,-140,38.158741,-122.451942,33.15,0.0,6.3,11,3,1.6,0,0.0,0.0,0.0,0
1214682,1429743756648,,0.73,0.17,0.79,-172.4,-63.0,-84.6,,,,,,,,,,,,,,,,,,
1214722,1429743756688,,0.74,0.15,0.79,-172.5,-61.3,-84.4,,,,,,,,,,,,,,,,,,
1214742,1429743756807,,,,,,,,29,,,3715,-143,38.158726,-122.451973,33.67,0.0,6.3,11,3,1.6,0,0.0,0.0,0.0,0
1214762,1429743756827,,0.75,0.14,0.79,-173.3,-62.2,-85.5,,,,,,,,,,,,,,,,,,
1214802,1429743756867,,0.76,0.16,0.81,-174.9,-62.7,-86.3,,,,,,,,,,,,,,,,,,
1214842,1429743756900,,0.76,0.17,0.83,-175.7,-63.7,-87.4,28,,,3726,-144,38.158722,-122.451996,34.05,0.0,6.3,11,3,1.6,0,0.0,0.0,0.0,0
1214882,1429743756940,,0.78,0.16,0.82,-176.5,-62.5,-88.4,,,,,,,,,,,,,,,,,,
1214922,1429743756980,,0.77,0.15,0.82,-177.1,-63.5,-88.6,,,,,,,,,,,,,,,,,,
1214942,1429743757007,,,,,,,,28,,,3740,-144,38.158714,-122.452011,34.19,0.0,6.3,11,3,1.6,0,0.0,0.0,0.0,0
1214962,1429743757027,,0.76,0.12,0.81,-177.9,-62.3,-90.2,,,,,,,,,,,,,,,,,,
1215002,1429743757067,,0.76,0.11,0.81,-178.8,-62.9,-90.6,,,,,,,,,,,,,,,,,,
1215042,1429743757107,14.18,0.76,0.1,0.81,-179.4,-61.9,-90.2,31,198,197,3776,-143,38.158707,-122.452019,34.33,0.0,6.4,11,3,1.6,0,0.0,0.0,0.0,0
1215082,1429743757147,,0.77,0.11,0.81,-180.0,-63.8,-90.0,,,,,,,,,,,,,,,,,,
1215122,1429743757187,,0.79,0.11,0.8,-179.9,-62.8,-91.0,,,,,,,,,,,,,,,,,,
1215142,1429743757207,,,,,,,,31,,,3794,-143,38.158707,-122.452019,34.33,0.0,6.4,11,3,1.6,0,0.0,0.0,0.0,0
1215162,1429743757227,,0.79,0.11,0.81,-179.2,-61.7,-91.5,,,,,,,,,,,,,,,,,,
1215202,1429743757267,,0.79,0.11,0.8,-179.0,-62.1,-91.6,,,,,,,,,,,,,,,,,,
1215242,1429743757207,,0.79,0.13,0.8,-179.1,-63.4,-91.8,31,,,3826,-143,38.158703,-122.452034,34.66,0.0,6.4,11,3,1.6,0,0.0,0.0,0.0,0
1215282,1429743757247,,0.8,0.15,0.82,-179.1,-64.4,-91.7,,,,,,,,,,,,,,,,,,
1215322,1429743757287,,0.81,0.16,0.82,-179.1,-63.1,-90.9,,,,,,,,,,,,,,,,,,
1215342,1429743757308,,,,,,,,32,,,3849,-143,38.158695,-122.452057,34.74,0.0,6.5,11,3,1.6,0,0.0,0.0,0.0,0
1215362,1429743757328,,0.81,0.16,0.82,-179.4,-61.8,-92.2,,,,,,,,,,,,,,,,,,
1215402,1429743757368,,0.82,0.15,0.82,-179.2,-61.0,-92.3,,,,,,,,,,,,,,,,,,
1215442,1429743757408,,0.8,0.15,0.81,-179.7,-60.2,-93.4,34,,,3876,-143,38.158691,-122.452072,34.91,0.0,6.5,11,3,1.6,0,0.0,0.0,0.0,0
1215482,1429743757448,,0.81,0.16,0.81,-179.5,-60.6,-93.0,,,,,,,,,,,,,,,,,,
1215522,1429743757488,,0.86,0.18,0.82,-179.0,-61.7,-90.1,,,,,,,,,,,,,,,,,,
1215542,1429743757602,,,,,,,,35,,,3937,-142,38.158684,-122.45211,35.11,0.0,6.6,11,3,1.6,0,0.0,0.0,0.0,0
1215562,1429743757622,,0.86,0.22,0.82,-178.1,-64.5,-88.5,,,,,,,,,,,,,,,,,,
1215602,1429743757662,,0.86,0.23,0.83,-177.7,-65.5,-86.7,,,,,,,,,,,,,,,,,,
1215642,1429743757707,,0.88,0.23,0.83,-176.7,-66.3,-86.5,35,,,3949,-141,38.158684,-122.452126,35.24,0.0,6.6,11,3,1.6,0,0.0,0.0,0.0,0
1215682,1429743757747,,0.87,0.22,0.82,-175.5,-66.0,-86.2,,,,,,,,,,,,,,,,,,
1215722,1429743757787,,0.83,0.2,0.8,-174.8,-64.2,-85.4,,,,,,,,,,,,,,,,,,
1215742,1429743757807,,,,,,,,35,,,3994,-139,38.158684,-122.452148,35.63,0.0,6.6,11,3,1.6,0,0.0,0.0,0.0,0
1215762,1429743757827,,0.8,0.18,0.79,-175.1,-63.8,-86.0,,,,,,,,,,,,,,,,,,
1215802,1429743757867,,0.81,0.17,0.78,-174.6,-64.9,-86.6,,,,,,,,,,,,,,,,,,
1215842,1429743757901,,0.79,0.15,0.77,-173.8,-66.0,-88.5,35,,,4026,-137,38.158684,-122.452164,36.02,0.0,6.6,11,3,1.6,0,0.0,0.0,0.0,0
1215882,1429743757941,,0.79,0.14,0.77,-173.7,-64.4,-89.4,,,,,,,,,,,,,,,,,,
1215922,1429743757981,,0.77,0.14,0.76,-173.9,-63.5,-90.3,,,,,,,,,,,,,,,,,,
1215942,1429743758001,,,,,,,,36,,,4058,-134,38.158684,-122.452164,36.02,0.0,6.6,11,3,1.6,0,0.0,0.0,0.0,0
1215962,1429743758021,,0.79,0.15,0.77,-174.2,-63.3,-89.5,,,,,,,,,,,,,,,,,,
1216002,1429743758061,,0.82,0.15,0.78,-174.2,-63.6,-89.5,,,,,,,,,,,,,,,,,,
1216042,1429743758009,14.23,0.82,0.17,0.79,-173.3,-63.3,-89.4,36,198,200,4108,-133,38.158684,-122.452187,36.33,0.0,6.6,11,3,1.6,0,0.0,0.0,0.0,0
1216082,1429743758049,,0.8,0.19,0.79,-173.3,-63.1,-87.4,,,,,,,,,,,,,,,,,,
1216122,1429743758089,,0.79,0.18,0.79,-172.3,-64.9,-86.4,,,,,,,,,,,,,,,,,,
1216142,1429743758109,,,,,,,,36,,,4132,-132,38.158684,-122.452202,36.59,0.0,6.6,11,3,1.6,0,0.0,0.0,0.0,0
1216162,1429743758129,,0.82,0.17,0.79,-171.8,-64.3,-87.3,,,,,,,,,,,,,,,,,,
1216202,1429743758169,,0.78,0.18,0.78,-170.8,-65.8,-87.7,,,,,,,,,,,,,,,,,,
1216242,1429743758208,,0.77,0.2,0.78,-170.8,-64.0,-88.0,38,,,4174,-128,38.158688,-122.452225,36.84,0.0,6.6,11,3,1.6,0,0.0,0.0,0.0,0
1216282,1429743758248,,0.76,0.21,0.77,-170.2,-63.2,-89.0,,,,,,,,,,,,,,,,,,
1216322,1429743758288,,0.78,0.22,0.78,-169.1,-63.9,-90.9,,,,,,,,,,,,,,,,,,
1216342,1429743758407,,,,,,,,38,,,4209,-125,38.158695,-122.452263,37.53,0.0,6.6,11,3,1.6,0,0.0,0.0,0.0,0
1216362,1429743758427,,0.77,0.2,0.77,-168.1,-64.8,-90.9,,,,,,,,,,,,,,,,,,
1216402,1429743758467,,0.78,0.19,0.77,-167.1,-63.4,-91.0,,,,,,,,,,,,,,,,,,
1216442,1429743758507,,0.81,0.19,0.77,-166.6,-65.1,-90.0,38,,,4259,-120,38.158703,-122.452278,37.82,0.0,6.6,11,3,1.6,0,0.0,0.0,0.0,0
1216482,1429743758547,,0.82,0.2,0.78,-166.1,-68.0,-89.7,,,,,,,,,,,,,,,,,,
1216522,1429743758587,,0.82,0.21,0.77,-165.6,-67.1,-87.6,,,,,,,,,,,,,,,,,,
1216542,1429743758607,,,,,,,,38,,,4296,-117,38.158703,-122.452301,38.03,0.0,6.6,11,3,1.6,0,0.0,0.0,0.0,0
1216562,1429743758627,,0.78,0.19,0.76,-165.5,-66.3,-88.9,,,,,,,,,,,,,,,,,,
1216602,1429743758667,,0.79,0.21,0.76,-164.8,-65.7,-87.6,,,,,,,,,,,,,,,,,,
1216642,1429743758707,,0.82,0.2,0.75,-164.7,-65.0,-87.7,38,,,4348,-112,38.15871,-122.452316,38.41,0.0,6.6,11,3,1.6,0,0.0,0.0,0.0,0
1216682,1429743758747,,0.82,0.24,0.76,-163.8,-66.0,-89.7,,,,,,,,,,,,,,,,,,
1216722,1429743758787,,0.81,0.25,0.77,-164.0,-63.2,-90.4,,,,,,,,,,,,,,,,,,
1216742,1429743758807,,,,,,,,39,,,4378,-108,38.15871,-122.452316,38.41,0.0,6.6,11,3,1.6,0,0.0,0.0,0.0,0
1216762,1429743758827,,0.83,0.27,0.77,-163.4,-63.7,-88.8,,,,,,,,,,,,,,,,,,
1216802,1429743758867,,0.84,0.28,0.78,-162.0,-63.5,-87.7,,,,,,,,,,,,,,,,,,
1216842,1429743758801,,0.85,0.28,0.78,-160.5,-65.0,-87.0,39,,,4437,-104,38.158718,-122.452332,38.85,0.0,6.6,11,3,1.6,0,0.0,0.0,0.0,0
1216882,1429743758841,,0.83,0.27,0.78,-159.7,-63.5,-86.2,,,,,,,,,,,,,,,,,,
1216922,1429743758881,,0.82,0.26,0.77,-158.5,-64.1,-84.4,,,,,,,,,,,,,,,,,,
1216942,1429743758908,,,,,,,,40,,,4476,-101,38.158726,-122.452354,39.2,0.0,6.6,11,3,1.6,0,0.0,0.0,0.0,0
1216962,1429743758928,,0.81,0.26,0.76,-157.8,-66.0,-84.2,,,,,,,,,,,,,,,,,,
1217002,1429743758968,,0.8,0.27,0.76,-156.2,-67.7,-83.9,,,,,,,,,,,,,,,,,,
1217042,1429743759008,14.18,0.82,0.3,0.77,-155.2,-69.7,-83.1,40,199,200,4509,-96,38.158733,-122.45237,39.55,0.0,6.6,12,3,1.6,0,0.0,0.0,0.0,0
1217082,1429743759048,,0.83,0.31,0.76,-153.4,-66.3,-81.6,,,,,,,,,,,,,,,,,,
1217122,1429743759088,,0.81,0.3,0.75,-151.8,-65.5,-80.0,,,,,,,,,,,,,,,,,,
1217142,1429743759207,,,,,,,,40,,,4554,-89,38.158752,-122.452408,40.43,0.0,6.7,12,3,1.6,0,0.0,0.0,0.0,0
1217162,1429743759227,,0.84,0.32,0.74,-151.3,-66.5,-80.2,,,,,,,,,,,,,,,,,,
1217202,1429743759267,,0.81,0.33,0.76,-148.7,-66.8,-78.9,,,,,,,,,,,,,,,,,,
1217242,1429743759307,,0.75,0.33,0.74,-148.6,-62.7,-77.7,42,,,4591,-84,38.158764,-122.452415,40.83,0.0,6.7,12,3,1.6,0,0.0,0.0,0.0,0
1217282,1429743759347,,0.73,0.28,0.73,-147.7,-61.7,-74.3,,,,,,,,,,,,,,,,,,
1217322,1429743759387,,0.73,0.26,0.72,-145.7,-61.4,-72.8,,,,,,,,,,,,,,,,,,
1217342,1429743759408,,,,,,,,46,,,4664,-79,38.158775,-122.452431,41.4,0.0,6.7,12,3,1.6,0,0.0,0.0,0.0,0
1217362,1429743759428,,0.73,0.28,0.74,-144.0,-62.2,-73.3,,,,,,,,,,,,,,,,,,
1217402,1429743759468,,0.74,0.32,0.75,-142.8,-61.9,-71.6,,,,,,,,,,,,,,,,,,
1217442,1429743759508,,0.74,0.34,0.74,-141.1,-60.4,-70.9,50,,,4717,-75,38.158787,-122.452454,41.81,0.0,6.8,12,3,1.6,0,0.0,0.0,0.0,0
1217482,1429743759548,,0.72,0.35,0.74,-139.2,-59.8,-70.4,,,,,,,,,,,,,,,,,,
1217522,1429743759588,,0.7,0.35,0.75,-137.9,-59.5,-72.1,,,,,,,,,,,,,,,,,,
1217542,1429743759608,,,,,,,,54,,,4748,-72,38.158787,-122.452454,41.81,0.0,6.8,12,3,1.6,0,0.0,0.0,0.0,0
1217562,1429743759628,,0.69,0.38,0.77,-137.5,-60.8,-73.8,,,,,,,,,,,,,,,,,,
1217602,1429743759668,,0.67,0.39,0.77,-135.5,-61.3,-71.2,,,,,,,,,,,,,,,,,,
1217642,1429743759609,,0.64,0.39,0.76,-133.3,-63.3,-71.9,64,,,4836,-68,38.158802,-122.452469,42.26,0.0,6.8,12,3,1.6,0,0.0,0.0,0.0,0
1217682,1429743759649,,0.63,0.4,0.75,-130.9,-64.3,-71.9,,,,,,,,,,,,,,,,,,
1217722,1429743759689,,0.61,0.37,0.74,-128.6,-64.5,-71.2,,,,,,,,,,,,,,,,,,
1217742,1429743759708,,,,,,,,67,,,4892,-65,38.158813,-122.452484,42.94,0.0,6.8,12,3,1.6,0,0.0,0.0,0.0,0
1217762,1429743759728,,0.6,0.35,0.72,-126.1,-64.8,-71.7,,,,,,,,,,,,,,,,,,
1217802,1429743759768,,0.58,0.34,0.7,-124.6,-63.0,-72.9,,,,,,,,,,,,,,,,,,
1217842,1429743759799,,0.58,0.33,0.7,-124.0,-63.4,-74.4,75,,,4985,-60,38.158829,-122.452492,43.56,0.0,6.8,12,3,1.6,0,0.0,0.0,0.0,0
1217882,1429743759839,,0.55,0.33,0.7,-123.2,-63.1,-76.1,,,,,,,,,,,,,,,,,,
1217922,1429743759879,,0.54,0.33,0.7,-122.7,-61.0,-78.0,,,,,,,,,,,,,,,,,,
1217942,1429743760007,,,,,,,,80,,,5030,-56,38.158859,-122.452522,45.0,0.0,6.8,11,3,1.6,0,0.0,0.0,0.0,0
1217962,1429743760027,,0.56,0.34,0.7,-121.0,-60.0,-79.1,,,,,,,,,,,,,,,,,,
1218002,1429743760067,,0.54,0.34,0.7,-119.8,-59.5,-78.1,,,,,,,,,,,,,,,,,,
